
"data" :
[
    {
        "id": "0FOJefeLxQYXQ1CnJm9o",
        "recovered": 808,
        "longitude": -2.5895,
        "latitude": 49.4482,
        "name": "Guernsey",
        "dead": 14,
        "alwaysShow": false,
        "vaccinated": 32969,
        "country": "GG",
        "infected": 822,
        "pop": 63196,
        "lastUpdated": "2021-04-24T16:53:08.839Z",
        "sick": 0,
        "invisible": false
    },
    {
        "dead": 6189,
        "infected": 381274,
        "longitude": 14.333333,
        "state": "72",
        "name": "Campania",
        "recovered": 283223,
        "vaccinated": 0,
        "pop": 5827000,
        "lastUpdated": "2021-04-24T17:23:06.187Z",
        "id": "0GJcws44NSPsDHAuxJhW",
        "latitude": 41.066666,
        "country": "IT",
        "sick": 91862,
        "invisible": false
    },
    {
        "country": "CL",
        "infected": 32702,
        "recovered": 0,
        "vaccinated": 0,
        "name": "Tarapacá",
        "id": "0HDQbiHe462xMCUV5HiI",
        "latitude": -20.2167,
        "lastUpdated": "2021-04-24T17:23:05.924Z",
        "dead": 595,
        "longitude": -70.14222,
        "pop": 383870,
        "sick": 32107,
        "invisible": false
    },
    {
        "vaccinated": 0,
        "infected": 401341,
        "lastUpdated": "2021-04-24T17:23:04.532Z",
        "dead": 2034,
        "name": "Odisha",
        "latitude": 20.9517,
        "id": "0VG7S6aaK4eSo59fL9JO",
        "country": "IN",
        "recovered": 359467,
        "pop": 45990000,
        "longitude": 85.0985,
        "sick": 39840,
        "invisible": false
    },
    {
        "latitude": 20.4737,
        "pop": 2990300,
        "country": "MX",
        "longitude": -98.8582,
        "id": "0XmCRqiK2ZaehoEJvfer",
        "lastUpdated": "2021-04-24T17:23:05.207Z",
        "name": "Hidalgo",
        "dead": 5276,
        "recovered": 0,
        "vaccinated": 0,
        "infected": 37885,
        "sick": 32609,
        "invisible": false
    },
    {
        "longitude": 92.6586,
        "country": "IN",
        "latitude": 11.7401,
        "lastUpdated": "2021-04-24T17:23:04.535Z",
        "recovered": 5358,
        "infected": 5569,
        "dead": 65,
        "id": "0jStOpTUNRaQYJqgmRoK",
        "name": "Andaman and Nicobar Islands",
        "vaccinated": 0,
        "pop": 427246,
        "sick": 146,
        "invisible": false
    },
    {
        "longitude": 51.145517,
        "country": "QA",
        "dead": 413,
        "lastUpdated": "2021-04-24T17:38:03.341Z",
        "name": "Qatar",
        "infected": 200778,
        "vaccinated": 1345423,
        "pop": 2639000,
        "id": "0m4aECS0Z2DGFEr8ldgI",
        "recovered": 178461,
        "latitude": 25.315058,
        "sick": 21904,
        "invisible": false
    },
    {
        "lastUpdated": "2021-04-24T17:23:04.532Z",
        "infected": 728061,
        "pop": 90320000,
        "recovered": 635802,
        "country": "IN",
        "dead": 10884,
        "vaccinated": 0,
        "id": "0n54EMSDJcRoT1QEvw80",
        "longitude": 87.855,
        "latitude": 22.9868,
        "name": "West Bengal",
        "sick": 81375,
        "invisible": false
    },
    {
        "longitude": 78.6569,
        "country": "IN",
        "latitude": 22.9734,
        "dead": 5041,
        "id": "0s18o5DrDAHjbu5MFcrj",
        "name": "Madhya Pradesh",
        "recovered": 391299,
        "pop": 73340000,
        "lastUpdated": "2021-04-24T17:23:04.533Z",
        "infected": 485703,
        "vaccinated": 0,
        "sick": 89363,
        "invisible": false
    },
    {
        "invisible": true,
        "infected": 0,
        "name": "Unknown US state",
        "country": "US",
        "latitude": 37.0902,
        "recovered": 25299301,
        "longitude": -95.7129,
        "dead": 0,
        "id": "0tFoopNTs6e4tOoaltu2",
        "lastUpdated": "2021-04-24T17:38:03.336Z",
        "vaccinated": 0,
        "sick": 0
    },
    {
        "vaccinated": 0,
        "recovered": 569,
        "latitude": 35.64249,
        "infected": 588,
        "pop": 37330000,
        "name": "Shaanxi",
        "longitude": 108.472214,
        "lastUpdated": "2021-04-24T17:23:08.468Z",
        "country": "CN",
        "dead": 3,
        "id": "0x2HLhr5z5xAtEdO4iZm",
        "sick": 16,
        "invisible": false
    },
    {
        "id": "19MvIhipqTyYv1H37Upw",
        "lastUpdated": "2021-04-24T17:38:03.342Z",
        "latitude": 41.643351,
        "pop": 2077000,
        "vaccinated": 44974,
        "recovered": 128496,
        "infected": 150274,
        "name": "North Macedonia",
        "country": "MK",
        "dead": 4650,
        "longitude": 21.668393,
        "sick": 17128,
        "invisible": false
    },
    {
        "lastUpdated": "2021-04-24T17:23:05.154Z",
        "recovered": 1047,
        "state": "NL",
        "latitude": 53.1355,
        "country": "CA",
        "id": "1DOMOmCWDtva46OVSZLv",
        "dead": 6,
        "vaccinated": 0,
        "longitude": -57.6604,
        "pop": 521542,
        "name": "Newfoundland and Labrador",
        "infected": 1053,
        "sick": 0,
        "invisible": false
    },
    {
        "name": "Qinghai",
        "recovered": 18,
        "latitude": 35.801933,
        "vaccinated": 0,
        "pop": 5627000,
        "infected": 18,
        "longitude": 96.779286,
        "id": "1Fap7rZu9SIRqf5TG9Dg",
        "country": "CN",
        "lastUpdated": "2021-04-24T17:23:08.472Z",
        "dead": 0,
        "sick": 0,
        "invisible": false
    },
    {
        "infected": 0,
        "country": "MX",
        "dead": 38472,
        "invisible": true,
        "vaccinated": 11622868,
        "recovered": 1845008,
        "pop": 126200000,
        "lastUpdated": "2021-04-24T17:38:03.337Z",
        "longitude": -102.5528,
        "latitude": 23.6345,
        "id": "1YXQMlVL3fUeDZmcVfJw",
        "name": "Unknown Mexico state",
        "sick": 0
    },
    {
        "name": "Omsk Oblast",
        "dead": 1372,
        "recovered": 42764,
        "country": "RU",
        "vaccinated": 0,
        "longitude": 73.3167,
        "id": "1at5nIap9H51v32otlQl",
        "latitude": 55.0555,
        "lastUpdated": "2021-04-24T17:23:13.055Z",
        "pop": 1960000,
        "infected": 45380,
        "sick": 1244,
        "invisible": false
    },
    {
        "recovered": 311098,
        "infected": 339873,
        "name": "Piemonte",
        "pop": 4376000,
        "id": "1eTSQyfp8RoDPeFrIwun",
        "state": "21",
        "vaccinated": 0,
        "latitude": 44.9,
        "lastUpdated": "2021-04-24T17:23:06.188Z",
        "country": "IT",
        "longitude": 8.206944,
        "dead": 11124,
        "sick": 17651,
        "invisible": false
    },
    {
        "recovered": 0,
        "id": "1j1OurxLTpZYuWIWwQ9F",
        "lastUpdated": "2021-04-24T04:16:30.373Z",
        "pop": 1003000,
        "name": "Lubuskie",
        "dead": 1812,
        "infected": 71175,
        "latitude": 51.993,
        "vaccinated": 0,
        "longitude": 15.461,
        "country": "PL",
        "sick": 69363,
        "invisible": false
    },
    {
        "latitude": 47.4116,
        "longitude": 28.3699,
        "dead": 5709,
        "pop": 3550000,
        "country": "MD",
        "lastUpdated": "2021-04-24T17:38:03.341Z",
        "name": "Moldova",
        "id": "1qTPB8X3tyLyIdsb5TN3",
        "infected": 248898,
        "recovered": 236774,
        "vaccinated": 98541,
        "sick": 6415,
        "invisible": false
    },
    {
        "vaccinated": 0,
        "lastUpdated": "2021-04-24T17:23:05.738Z",
        "country": "US",
        "name": "Federal Bureau of Prisons",
        "longitude": -95.7129,
        "id": "22PJOAThcDFKgSbyQIkD",
        "latitude": 37.0902,
        "dead": 237,
        "recovered": 0,
        "infected": 54548,
        "invisible": true,
        "sick": 54311
    },
    {
        "longitude": 88.787865,
        "country": "CN",
        "latitude": 30.15336,
        "pop": 3180000,
        "lastUpdated": "2021-04-24T17:23:08.472Z",
        "recovered": 1,
        "name": "Tibet",
        "infected": 1,
        "vaccinated": 0,
        "id": "25qIBtsW2nfQj3pwBKg9",
        "dead": 0,
        "sick": 0,
        "invisible": false
    },
    {
        "id": "2KHYUb5t3lwzVVmDjwNX",
        "lastUpdated": "2021-04-24T17:38:03.337Z",
        "pop": 264000000,
        "dead": 44500,
        "vaccinated": 11432711,
        "longitude": 115.66779,
        "infected": 1636792,
        "name": "Indonesia",
        "country": "ID",
        "recovered": 1492322,
        "latitude": -1.572184,
        "sick": 99970,
        "invisible": false
    },
    {
        "vaccinated": 1729523,
        "lastUpdated": "2021-04-24T17:23:05.736Z",
        "pop": 4191000,
        "name": "Oregon",
        "infected": 179120,
        "longitude": -120.585594,
        "state": "OR",
        "recovered": 0,
        "latitude": 43.807191,
        "id": "2OrsssmGUs4XCzaZzvTv",
        "dead": 2476,
        "country": "US",
        "sick": 176644,
        "invisible": false
    },
    {
        "latitude": 56.1304,
        "name": "Vaccinations in Canada",
        "lastUpdated": "2021-04-24T03:20:38.969Z",
        "longitude": -106.3468,
        "vaccinated": 10184121,
        "country": "CA",
        "dead": 0,
        "id": "2TN3MxcQYFwBnR2VERbd",
        "infected": 0,
        "invisible": true,
        "recovered": 0,
        "sick": 0
    },
    {
        "country": "CL",
        "dead": 944,
        "recovered": 0,
        "vaccinated": 0,
        "id": "2c5HBZ1ffkCVXnMYUWnY",
        "latitude": -23.65,
        "longitude": -70.400002,
        "name": "Antofagasta",
        "lastUpdated": "2021-04-24T17:23:05.925Z",
        "infected": 47649,
        "pop": 425000,
        "sick": 46705,
        "invisible": false
    },
    {
        "state": "AP",
        "recovered": 0,
        "dead": 1502,
        "country": "BR",
        "latitude": 0.035574,
        "pop": 9029000,
        "lastUpdated": "2021-04-24T17:23:04.492Z",
        "name": "Amapá",
        "id": "2dzhyWsBSPpENWlNew0b",
        "longitude": -51.070534,
        "infected": 104109,
        "vaccinated": 0,
        "sick": 102607,
        "invisible": false
    },
    {
        "recovered": 570,
        "lastUpdated": "2021-04-24T17:23:08.471Z",
        "vaccinated": 0,
        "longitude": 126.548103,
        "latitude": 43.851921,
        "id": "2jxHvSsxdnom0nPNvOT8",
        "name": "Jilin",
        "country": "CN",
        "infected": 573,
        "dead": 3,
        "pop": 27460000,
        "sick": 0,
        "invisible": false
    },
    {
        "pop": 34571,
        "country": "GI",
        "vaccinated": 35912,
        "infected": 4283,
        "dead": 94,
        "longitude": -5.3536,
        "recovered": 4183,
        "lastUpdated": "2021-04-24T17:38:03.350Z",
        "id": "2p11BjSAs3wVyymgqBOe",
        "name": "Gibraltar",
        "latitude": 36.1408,
        "sick": 6,
        "invisible": false
    },
    {
        "recovered": 10342,
        "vaccinated": 0,
        "lastUpdated": "2021-04-24T04:05:24.940Z",
        "infected": 173877,
        "dead": 2436,
        "name": "Centre-Val de Loire",
        "latitude": 47.7516,
        "longitude": 1.6751,
        "pop": 2567000,
        "id": "2sLNkkHpyaHx7dD3aMDO",
        "country": "FR",
        "sick": 161099,
        "invisible": false
    },
    {
        "country": "IT",
        "vaccinated": 0,
        "latitude": 42.565044,
        "recovered": 49405,
        "dead": 1339,
        "name": "Umbria",
        "lastUpdated": "2021-04-24T17:23:06.189Z",
        "id": "319tiZOMczx1y0DfvOib",
        "state": "55",
        "longitude": 12.643751,
        "infected": 53810,
        "pop": 884640,
        "sick": 3066,
        "invisible": false
    },
    {
        "recovered": 89403,
        "lastUpdated": "2021-04-24T17:38:03.343Z",
        "vaccinated": 3391,
        "country": "ZM",
        "dead": 1245,
        "pop": 17090000,
        "id": "3IlPjAbP5qVMn1nlgLTJ",
        "infected": 91317,
        "name": "Zambia",
        "latitude": -13.133896,
        "longitude": 27.849332,
        "sick": 669,
        "invisible": false
    },
    {
        "dead": 1463,
        "recovered": 92377,
        "lastUpdated": "2021-04-24T17:38:03.343Z",
        "pop": 631219,
        "infected": 96499,
        "country": "ME",
        "longitude": 19.3958,
        "name": "Montenegro",
        "vaccinated": 39123,
        "id": "3LstMSN5XMYBkxbe5HN7",
        "latitude": 42.7044,
        "sick": 2659,
        "invisible": false
    },
    {
        "lastUpdated": "2021-04-24T17:23:47.136Z",
        "longitude": 149.0124,
        "infected": 123,
        "latitude": -35.4735,
        "recovered": 120,
        "country": "AU",
        "dead": 3,
        "state": "ACT",
        "name": "Australian Capital Territory",
        "vaccinated": 0,
        "id": "3OZoQsKrzxZ18EKyfGE6",
        "pop": 418440,
        "sick": 0,
        "invisible": false
    },
    {
        "country": "RU",
        "longitude": 38.8389,
        "pop": 608000,
        "name": "Yaroslavl Oblast",
        "infected": 38144,
        "dead": 520,
        "latitude": 57.8992,
        "vaccinated": 0,
        "id": "3PfzjWjvOkfgxc672BHQ",
        "recovered": 36357,
        "lastUpdated": "2021-04-24T17:23:13.057Z",
        "sick": 1267,
        "invisible": false
    },
    {
        "dead": 201,
        "pop": 321000,
        "country": "RU",
        "longitude": 95.626,
        "name": "Tuva",
        "vaccinated": 0,
        "recovered": 15342,
        "lastUpdated": "2021-04-24T17:23:13.064Z",
        "infected": 15800,
        "latitude": 51.8873,
        "id": "3PpqgIUJAtzxo1j7z56i",
        "sick": 257,
        "invisible": false
    },
    {
        "vaccinated": 0,
        "name": "Assam",
        "id": "3cCbnJCsK7mKlTO08K1o",
        "recovered": 218339,
        "latitude": 26.2006,
        "infected": 233453,
        "longitude": 92.9376,
        "lastUpdated": "2021-04-24T17:23:04.533Z",
        "pop": 30940000,
        "country": "IN",
        "dead": 1172,
        "sick": 13942,
        "invisible": false
    },
    {
        "pop": 11690000,
        "latitude": 40.4173,
        "infected": 1061907,
        "longitude": -82.9071,
        "recovered": 0,
        "dead": 19122,
        "name": "Ohio",
        "country": "US",
        "lastUpdated": "2021-04-24T17:23:05.732Z",
        "state": "OH",
        "id": "3fC3bAyIRUquOQOEnQNe",
        "vaccinated": 4548910,
        "sick": 1042785,
        "invisible": false
    },
    {
        "name": "Sinaloa",
        "pop": 3066400,
        "country": "MX",
        "id": "3kFCzJguabtBvXaHxgiu",
        "latitude": 25,
        "longitude": -107.5,
        "lastUpdated": "2021-04-24T17:23:05.205Z",
        "dead": 5063,
        "infected": 37702,
        "recovered": 0,
        "vaccinated": 0,
        "sick": 32639,
        "invisible": false
    },
    {
        "name": "Solomon Islands",
        "lastUpdated": "2021-04-24T17:38:03.358Z",
        "infected": 20,
        "longitude": 159.1874,
        "recovered": 18,
        "pop": 652858,
        "id": "41LTtDPrGAeevS4q8iyj",
        "latitude": -9.2263,
        "dead": 0,
        "vaccinated": 2000,
        "country": "SB",
        "sick": 2,
        "invisible": false
    },
    {
        "lastUpdated": "2021-04-24T17:38:03.346Z",
        "id": "4NnFMekRK2m14IlnZZoj",
        "country": "MR",
        "latitude": 21.0079,
        "vaccinated": 2930,
        "longitude": -10.9408,
        "infected": 18207,
        "recovered": 17560,
        "dead": 454,
        "name": "Mauritania",
        "pop": 4420000,
        "sick": 193,
        "invisible": false
    },
    {
        "latitude": 53.7267,
        "dead": 1554,
        "infected": 123758,
        "longitude": -127.6476,
        "lastUpdated": "2021-04-24T17:23:05.142Z",
        "name": "British Columbia",
        "pop": 5071000,
        "country": "CA",
        "id": "4hfZRUoUgI4a3vrG0GBk",
        "vaccinated": 0,
        "recovered": 122204,
        "state": "BC",
        "sick": 0,
        "invisible": false
    },
    {
        "name": "Rio de Janeiro",
        "lastUpdated": "2021-04-24T17:23:04.489Z",
        "longitude": -43.196388,
        "state": "RJ",
        "vaccinated": 0,
        "infected": 720749,
        "country": "BR",
        "id": "4kq0z3kh5zt3YAUWxvtE",
        "latitude": -22.908333,
        "dead": 42634,
        "recovered": 0,
        "pop": 17159960,
        "sick": 678115,
        "invisible": false
    },
    {
        "pop": 14812617,
        "recovered": 0,
        "vaccinated": 0,
        "dead": 17804,
        "latitude": -11.409874,
        "country": "BR",
        "name": "Bahia",
        "lastUpdated": "2021-04-24T17:23:04.490Z",
        "longitude": -41.280857,
        "infected": 877484,
        "state": "BA",
        "id": "4yDbkEyqsNzZJjfrciYV",
        "sick": 859680,
        "invisible": false
    },
    {
        "id": "4zqzRm2xHn0CDVOUQJ8p",
        "pop": 9898000,
        "recovered": 276934,
        "country": "AZ",
        "infected": 311465,
        "name": "Azerbaijan",
        "dead": 4342,
        "longitude": 47.93802,
        "lastUpdated": "2021-04-24T17:38:03.340Z",
        "latitude": 40.3426,
        "vaccinated": 917877,
        "sick": 30189,
        "invisible": false
    },
    {
        "vaccinated": 0,
        "id": "54cfsdsRF76XVHWtZs19",
        "country": "MX",
        "lastUpdated": "2021-04-24T17:23:05.207Z",
        "infected": 56042,
        "name": "Tamaulipas",
        "pop": 3672300,
        "latitude": 22.233105,
        "dead": 4341,
        "recovered": 0,
        "longitude": -97.861099,
        "sick": 51701,
        "invisible": false
    },
    {
        "lastUpdated": "2021-04-24T17:23:14.299Z",
        "recovered": 32882,
        "vaccinated": 0,
        "latitude": 51.0109,
        "country": "BE",
        "pop": 6596000,
        "longitude": 3.7265,
        "state": "VLG",
        "infected": 448239,
        "id": "57ydD48mLRD2YoyteJZj",
        "name": "Flanders",
        "dead": 12229,
        "sick": 403128,
        "invisible": false
    },
    {
        "name": "Bahamas",
        "vaccinated": 10000,
        "infected": 9976,
        "lastUpdated": "2021-04-24T17:38:03.348Z",
        "recovered": 9215,
        "pop": 395361,
        "longitude": -78.035889,
        "id": "5MHegCUO9L3LiAU7DDey",
        "country": "BS",
        "latitude": 25.025885,
        "dead": 196,
        "sick": 565,
        "invisible": false
    },
    {
        "latitude": -31.253218,
        "country": "AU",
        "name": "New South Wales",
        "dead": 54,
        "longitude": 146.921097,
        "recovered": 5271,
        "pop": 7544000,
        "infected": 5419,
        "id": "5N16a2OXXRpsEFanw0TC",
        "lastUpdated": "2021-04-24T17:23:47.137Z",
        "vaccinated": 0,
        "state": "NSW",
        "sick": 94,
        "invisible": false
    },
    {
        "dead": 114,
        "infected": 10515,
        "pop": 12580000,
        "country": "SS",
        "longitude": 31.3069782,
        "id": "5N4PRxsCDzzwk7R200V1",
        "recovered": 10250,
        "lastUpdated": "2021-04-24T17:38:03.348Z",
        "vaccinated": 0,
        "name": "South Sudan",
        "latitude": 6.8769908,
        "sick": 151,
        "invisible": false
    },
    {
        "longitude": -0.7533,
        "pop": 4975000,
        "latitude": 39.484,
        "infected": 389344,
        "id": "5Va9A7CXR8AXdUz4HTJj",
        "name": "C. Valenciana",
        "country": "ES",
        "recovered": 0,
        "lastUpdated": "2021-04-24T03:53:21.175Z",
        "dead": 7245,
        "vaccinated": 0,
        "state": "VC",
        "sick": 382099,
        "invisible": false
    },
    {
        "id": "5fg04eyDwFw3kEXnrxez",
        "infected": 124,
        "vaccinated": 0,
        "longitude": 165.618042,
        "name": "New Caledonia",
        "recovered": 58,
        "lastUpdated": "2021-04-24T17:38:03.357Z",
        "latitude": -20.9043045,
        "dead": 0,
        "pop": 280460,
        "country": "NC",
        "sick": 66,
        "invisible": false
    },
    {
        "recovered": 277123,
        "pop": 29300000,
        "name": "Nepal",
        "infected": 297087,
        "longitude": 84.124008,
        "id": "5gXZIjRgAvd6xWN1LOv8",
        "latitude": 28.394857,
        "lastUpdated": "2021-04-24T17:38:03.340Z",
        "dead": 3136,
        "vaccinated": 1966506,
        "country": "NP",
        "sick": 16828,
        "invisible": false
    },
    {
        "id": "5pwmh7aSdGRKqRbnuyc0",
        "country": "PH",
        "vaccinated": 1397628,
        "name": "Philippines",
        "infected": 989380,
        "longitude": 121.774017,
        "recovered": 883221,
        "latitude": 12.879721,
        "dead": 16674,
        "lastUpdated": "2021-04-24T17:38:03.338Z",
        "pop": 104900000,
        "sick": 89485,
        "invisible": false
    },
    {
        "id": "5qtR9nx4BLwu1ODTniaY",
        "vaccinated": 308071,
        "recovered": 35094,
        "country": "ZW",
        "lastUpdated": "2021-04-24T17:38:03.345Z",
        "dead": 1556,
        "pop": 14802190,
        "latitude": -17.824858,
        "longitude": 31.053028,
        "name": "Zimbabwe",
        "infected": 38045,
        "sick": 1395,
        "invisible": false
    },
    {
        "longitude": -109.188,
        "id": "5vkKgxTaKq1IH0Go357L",
        "dead": 1263,
        "invisible": false,
        "infected": 30435,
        "vaccinated": 698116,
        "recovered": 0,
        "state": "NA",
        "country": "US",
        "name": "Navajo Nation",
        "pop": 356890,
        "lastUpdated": "2021-04-24T17:23:05.738Z",
        "latitude": 36.0672,
        "sick": 29172
    },
    {
        "country": "MX",
        "latitude": 19.432241,
        "id": "61E7TGjUwAo9xu6Y6gAH",
        "name": "Ciudad de México",
        "recovered": 0,
        "longitude": -99.177254,
        "infected": 633423,
        "dead": 32614,
        "pop": 8781300,
        "lastUpdated": "2021-04-24T17:23:05.206Z",
        "vaccinated": 0,
        "sick": 600809,
        "invisible": false
    },
    {
        "pop": 1012000,
        "name": "Kaluga Oblast",
        "recovered": 31857,
        "infected": 33736,
        "dead": 307,
        "longitude": 35.1889,
        "id": "63KYOuWe41mvqWQrJbr2",
        "latitude": 54.3873,
        "lastUpdated": "2021-04-24T17:23:13.059Z",
        "vaccinated": 0,
        "country": "RU",
        "sick": 1572,
        "invisible": false
    },
    {
        "infected": 240522,
        "dead": 3841,
        "country": "LT",
        "recovered": 217779,
        "name": "Lithuania",
        "latitude": 55.621011,
        "lastUpdated": "2021-04-24T17:38:03.341Z",
        "longitude": 23.804991,
        "pop": 2794000,
        "id": "694ON7d0mRJDeM1gHBTR",
        "vaccinated": 610150,
        "sick": 18902,
        "invisible": false
    },
    {
        "name": "Saint Helena",
        "vaccinated": 3563,
        "longitude": -5.7089,
        "country": "SH",
        "lastUpdated": "2021-04-24T03:18:54.507Z",
        "pop": 4255,
        "infected": 0,
        "latitude": -15.965,
        "id": "6EM3QSuFrkLf7093gfCU",
        "recovered": 0,
        "dead": 0,
        "sick": 0,
        "invisible": false
    },
    {
        "vaccinated": 0,
        "country": "GB",
        "infected": 538645,
        "latitude": 51.1781,
        "name": "South East",
        "state": "EN",
        "longitude": -0.5596,
        "pop": 9175000,
        "recovered": 0,
        "dead": 0,
        "lastUpdated": "2021-04-24T17:23:05.485Z",
        "id": "6IQAsvrmBv0HPdeTnh4x",
        "sick": 538645,
        "invisible": false
    },
    {
        "longitude": 114.109497,
        "id": "6IcHIIH0zXpY0POmBZTv",
        "name": "Hong Kong",
        "infected": 11731,
        "pop": 7392000,
        "vaccinated": 789314,
        "dead": 209,
        "country": "HK",
        "recovered": 11340,
        "latitude": 22.396427,
        "lastUpdated": "2021-04-24T17:38:03.347Z",
        "sick": 182,
        "invisible": false
    },
    {
        "recovered": 0,
        "dead": 1465,
        "lastUpdated": "2021-04-24T17:23:04.492Z",
        "pop": 869265,
        "longitude": -72.4,
        "infected": 76376,
        "id": "6LQesrx5bHJsVUi1TXBp",
        "country": "BR",
        "latitude": -8.65,
        "name": "Acre",
        "state": "AC",
        "vaccinated": 0,
        "sick": 74911,
        "invisible": false
    },
    {
        "pop": 11180000,
        "id": "6SlpghTyB6lpMFvx3g9U",
        "lastUpdated": "2021-04-24T17:38:03.349Z",
        "infected": 7720,
        "name": "Benin",
        "recovered": 7510,
        "dead": 97,
        "vaccinated": 0,
        "latitude": 9.3077,
        "longitude": 2.3158,
        "country": "BJ",
        "sick": 113,
        "invisible": false
    },
    {
        "dead": 32618,
        "country": "IT",
        "infected": 793450,
        "pop": 10040000,
        "id": "6ZHcvMIzVWIaRnc4R3Qp",
        "lastUpdated": "2021-04-24T17:23:06.188Z",
        "name": "Lombardia",
        "vaccinated": 0,
        "recovered": 703739,
        "latitude": 45.6667,
        "state": "25",
        "longitude": 9.5,
        "sick": 57093,
        "invisible": false
    },
    {
        "vaccinated": 394990,
        "recovered": 221814,
        "id": "6ahNiyKDSDAftCctgLH3",
        "dead": 4203,
        "name": "Slovenia",
        "longitude": 14.5058,
        "lastUpdated": "2021-04-24T17:38:03.341Z",
        "country": "SI",
        "latitude": 46.0569,
        "infected": 236613,
        "pop": 2067000,
        "sick": 10596,
        "invisible": false
    },
    {
        "country": "CL",
        "vaccinated": 0,
        "recovered": 0,
        "pop": 300000,
        "name": "Atacama",
        "longitude": -70.331398,
        "lastUpdated": "2021-04-24T17:23:05.925Z",
        "latitude": -27.3667908,
        "dead": 195,
        "id": "6nyns7UGGgkU7pxrHf8i",
        "infected": 17208,
        "sick": 17013,
        "invisible": false
    },
    {
        "lastUpdated": "2021-04-24T17:38:03.346Z",
        "id": "6pBi38TUgYfFm0bry2uh",
        "name": "Gabon",
        "infected": 22433,
        "dead": 138,
        "vaccinated": 5362,
        "latitude": -0.8037,
        "recovered": 19074,
        "longitude": 11.6094,
        "country": "GA",
        "pop": 2025000,
        "sick": 3221,
        "invisible": false
    },
    {
        "longitude": -100.9792,
        "lastUpdated": "2021-04-24T17:23:05.207Z",
        "id": "6vjIVg1gSANFZghV7xtS",
        "country": "MX",
        "latitude": 22.1498,
        "dead": 4512,
        "name": "San Luis Potosí",
        "pop": 2831900,
        "recovered": 0,
        "infected": 62148,
        "vaccinated": 0,
        "sick": 57636,
        "invisible": false
    },
    {
        "dead": 1,
        "country": "FR",
        "infected": 958,
        "pop": 9131,
        "lastUpdated": "2021-04-24T17:38:03.355Z",
        "vaccinated": 0,
        "name": "Saint-Barthélémy",
        "id": "78Ox26bNHDA2Pk2b3Uwn",
        "latitude": 17.901672,
        "alwaysShow": true,
        "longitude": -62.818544,
        "recovered": 462,
        "sick": 495,
        "invisible": false
    },
    {
        "id": "7JDx6UJiwGSJyL1fChaJ",
        "latitude": 54.367,
        "lastUpdated": "2021-04-24T04:19:19.426Z",
        "longitude": 18.633,
        "pop": 2305000,
        "name": "Pomorskie",
        "infected": 186499,
        "vaccinated": 0,
        "dead": 4030,
        "recovered": 0,
        "country": "PL",
        "sick": 182469,
        "invisible": false
    },
    {
        "infected": 8563,
        "latitude": 35.2923,
        "lastUpdated": "2021-04-24T03:56:11.525Z",
        "longitude": -2.9381,
        "name": "Melilla",
        "pop": 84690,
        "recovered": 0,
        "vaccinated": 0,
        "dead": 88,
        "country": "ES",
        "state": "ML",
        "id": "7UASdZTZ1nPzzBwSTEA9",
        "sick": 8475,
        "invisible": false
    },
    {
        "lastUpdated": "2021-04-24T17:38:03.354Z",
        "country": "AG",
        "dead": 31,
        "longitude": -61.7964,
        "id": "7hVFcEV7nV0MrQr3LHrl",
        "name": "Antigua and Barbuda",
        "latitude": 17.0608,
        "recovered": 995,
        "vaccinated": 29754,
        "infected": 1222,
        "pop": 102012,
        "sick": 196,
        "invisible": false
    },
    {
        "vaccinated": 0,
        "longitude": 11.4979,
        "pop": 13000000,
        "name": "Bayern",
        "lastUpdated": "2021-04-24T17:23:06.818Z",
        "latitude": 48.7904,
        "infected": 576315,
        "country": "DE",
        "dead": 14041,
        "state": "BY",
        "recovered": 509663,
        "id": "7kCrrlOBE3jN6FtOVNUB",
        "sick": 52611,
        "invisible": false
    },
    {
        "longitude": 19.0402,
        "id": "7rYC2iFB50c55Ihgbs4Q",
        "name": "Hungary",
        "latitude": 47.4979,
        "dead": 26420,
        "country": "HU",
        "vaccinated": 3419450,
        "recovered": 478323,
        "infected": 767190,
        "lastUpdated": "2021-04-24T17:38:03.338Z",
        "pop": 9773000,
        "sick": 262447,
        "invisible": false
    },
    {
        "id": "8C0d7WVCjyUGtnc2gUAR",
        "recovered": 57821,
        "infected": 65998,
        "dead": 991,
        "pop": 24050000,
        "country": "CM",
        "name": "Cameroon",
        "lastUpdated": "2021-04-24T17:38:03.344Z",
        "longitude": 12.3547,
        "latitude": 7.3697,
        "vaccinated": 400,
        "sick": 7186,
        "invisible": false
    },
    {
        "dead": 3058,
        "pop": 1209000,
        "longitude": 4.3517,
        "recovered": 10691,
        "infected": 119935,
        "latitude": 50.8503,
        "name": "Brussels",
        "id": "8DOZWbN6bDdgaLXVlUEu",
        "vaccinated": 0,
        "country": "BE",
        "state": "BRU",
        "lastUpdated": "2021-04-24T17:23:14.307Z",
        "sick": 106186,
        "invisible": false
    },
    {
        "dead": 12783,
        "recovered": 244079,
        "country": "BO",
        "infected": 295892,
        "vaccinated": 431138,
        "longitude": -63.5887,
        "latitude": -16.2902,
        "lastUpdated": "2021-04-24T17:38:03.340Z",
        "pop": 11050000,
        "id": "8RihJrXw4NQXPxaRxr1u",
        "name": "Bolivia",
        "sick": 39030,
        "invisible": false
    },
    {
        "pop": 109897,
        "lastUpdated": "2021-04-24T17:38:03.353Z",
        "infected": 1830,
        "country": "VC",
        "latitude": 12.9843,
        "name": "St. Vincent Grenadines",
        "recovered": 1711,
        "vaccinated": 12764,
        "longitude": -61.2872,
        "id": "8ZTySQROQejkDAad0qxQ",
        "dead": 10,
        "sick": 109,
        "invisible": false
    },
    {
        "infected": 60966,
        "name": "Singapore",
        "latitude": 1.352083,
        "dead": 30,
        "longitude": 103.819839,
        "id": "8pA3fM4xC2c2wv1b4TnE",
        "recovered": 60629,
        "lastUpdated": "2021-04-24T17:38:03.344Z",
        "pop": 5621000,
        "country": "SG",
        "vaccinated": 1364124,
        "sick": 307,
        "invisible": false
    },
    {
        "lastUpdated": "2021-04-24T04:09:39.584Z",
        "name": "Pays de la Loire",
        "dead": 2459,
        "longitude": -1.5536,
        "vaccinated": 0,
        "id": "98hwAoohgWEOQVa3NlM5",
        "latitude": 47.2184,
        "recovered": 11221,
        "infected": 182666,
        "country": "FR",
        "pop": 3787000,
        "sick": 168986,
        "invisible": false
    },
    {
        "vaccinated": 0,
        "id": "9DAvxOObTqIvMOU93nlY",
        "infected": 9241,
        "lastUpdated": "2021-04-24T17:23:05.207Z",
        "latitude": 19.30754,
        "pop": 952300,
        "name": "Campeche",
        "dead": 1043,
        "longitude": -90.19885,
        "recovered": 0,
        "country": "MX",
        "sick": 8198,
        "invisible": false
    },
    {
        "recovered": 26411,
        "longitude": 30.2176,
        "latitude": 12.8628,
        "country": "SD",
        "infected": 32695,
        "name": "Sudan",
        "dead": 2300,
        "lastUpdated": "2021-04-24T17:38:03.345Z",
        "id": "9DPOkpIqrFy9mR4e9fuv",
        "vaccinated": 63837,
        "pop": 40530000,
        "sick": 3984,
        "invisible": false
    },
    {
        "infected": 20445,
        "id": "9JFYfvpcejMIgYlHpngA",
        "name": "Kostroma Oblast",
        "pop": 643000,
        "country": "RU",
        "recovered": 17788,
        "lastUpdated": "2021-04-24T17:23:13.063Z",
        "longitude": 43.9541,
        "latitude": 58.5501,
        "vaccinated": 0,
        "dead": 433,
        "sick": 2224,
        "invisible": false
    },
    {
        "recovered": 968746,
        "latitude": 45.943161,
        "id": "9QcETqEcM2fTv9zRvx5T",
        "dead": 27267,
        "name": "Romania",
        "longitude": 24.966761,
        "lastUpdated": "2021-04-24T17:38:03.338Z",
        "pop": 19530000,
        "country": "RO",
        "infected": 1044722,
        "vaccinated": 2801060,
        "sick": 48709,
        "invisible": false
    },
    {
        "id": "9Y5wmCqNCC6ZrenM31uA",
        "infected": 6835,
        "recovered": 4225,
        "latitude": 12.136389,
        "name": "Nicaragua",
        "pop": 6218000,
        "country": "NI",
        "longitude": -86.251389,
        "dead": 181,
        "vaccinated": 61625,
        "lastUpdated": "2021-04-24T17:38:03.349Z",
        "sick": 2429,
        "invisible": false
    },
    {
        "infected": 13560,
        "id": "9dIzxqDSVqPyINkHqwGv",
        "recovered": 7989,
        "longitude": -3.996166,
        "dead": 462,
        "name": "Mali",
        "lastUpdated": "2021-04-24T17:38:03.346Z",
        "country": "ML",
        "latitude": 17.5706921,
        "pop": 18540000,
        "vaccinated": 643,
        "sick": 5109,
        "invisible": false
    },
    {
        "recovered": 46000,
        "lastUpdated": "2021-04-24T17:38:03.343Z",
        "pop": 5513000,
        "longitude": 25.748152,
        "dead": 903,
        "latitude": 61.92411,
        "id": "9p6OCdZbUUwBLA60Gk3W",
        "name": "Finland",
        "country": "FI",
        "infected": 85607,
        "vaccinated": 1430756,
        "sick": 38704,
        "invisible": false
    },
    {
        "recovered": 4,
        "country": "MH",
        "dead": 0,
        "id": "9zREERBEgwAenYRBslpC",
        "pop": 58413,
        "infected": 4,
        "longitude": 165.3133,
        "vaccinated": 14073,
        "lastUpdated": "2021-04-24T17:38:03.359Z",
        "name": "Marshall Islands",
        "latitude": 11.604,
        "sick": 0,
        "invisible": false
    },
    {
        "dead": 3439,
        "lastUpdated": "2021-04-24T17:23:13.053Z",
        "recovered": 64232,
        "pop": 2876000,
        "country": "RU",
        "latitude": 64.248,
        "longitude": 95.1104,
        "infected": 69654,
        "vaccinated": 0,
        "id": "A6Us0fpQVCc85SoIqzg3",
        "name": "Krasnoyarsk Krai",
        "sick": 1983,
        "invisible": false
    },
    {
        "recovered": 0,
        "lastUpdated": "2021-04-24T17:23:05.736Z",
        "id": "A84CwQ52kA46Hr7pn6Bm",
        "vaccinated": 802260,
        "dead": 1281,
        "longitude": -71.590315,
        "name": "New Hampshire",
        "infected": 93231,
        "state": "NH",
        "pop": 1356000,
        "latitude": 43.311643,
        "country": "US",
        "sick": 91950,
        "invisible": false
    },
    {
        "name": "Rhode Island",
        "infected": 146324,
        "latitude": 41.823261,
        "country": "US",
        "pop": 1057000,
        "longitude": -71.412257,
        "state": "RI",
        "lastUpdated": "2021-04-24T17:23:05.736Z",
        "dead": 2660,
        "recovered": 0,
        "id": "AEUWUHS65qvjEslew11c",
        "vaccinated": 510243,
        "sick": 143664,
        "invisible": false
    },
    {
        "id": "AJ9jQ0iyKsafsmf5yHAR",
        "dead": 12761,
        "lastUpdated": "2021-04-24T17:23:06.187Z",
        "pop": 4453000,
        "recovered": 298618,
        "vaccinated": 0,
        "name": "Emilia-Romagna",
        "longitude": 11.327591,
        "country": "IT",
        "state": "45",
        "latitude": 44.498955,
        "infected": 363782,
        "sick": 52403,
        "invisible": false
    },
    {
        "pop": 990509,
        "longitude": 7.023,
        "name": "Saarland",
        "latitude": 49.3964,
        "country": "DE",
        "infected": 36115,
        "state": "SL",
        "id": "AKjFRQGnzuuZQhv5Qwx7",
        "lastUpdated": "2021-04-24T17:23:06.820Z",
        "vaccinated": 0,
        "dead": 963,
        "recovered": 32592,
        "sick": 2560,
        "invisible": false
    },
    {
        "latitude": 54.4319,
        "infected": 58240,
        "lastUpdated": "2021-04-24T17:23:13.054Z",
        "longitude": 60.8789,
        "pop": 3493000,
        "id": "AOapJ3gElQApd8Gnt8EL",
        "dead": 1393,
        "recovered": 53828,
        "country": "RU",
        "vaccinated": 0,
        "name": "Chelyabinsk Oblast",
        "sick": 3019,
        "invisible": false
    },
    {
        "name": "Maule",
        "recovered": 0,
        "dead": 1143,
        "pop": 1125002,
        "id": "APTPgjAsjFi0nsGyJV7M",
        "vaccinated": 0,
        "country": "CL",
        "lastUpdated": "2021-04-24T17:23:05.926Z",
        "latitude": -35.717,
        "longitude": -71.167,
        "infected": 67211,
        "sick": 66068,
        "invisible": false
    },
    {
        "lastUpdated": "2021-04-24T17:38:03.358Z",
        "infected": 31,
        "vaccinated": 8136,
        "recovered": 31,
        "country": "GL",
        "latitude": 71.7069,
        "longitude": -42.6043,
        "dead": 0,
        "name": "Greenland",
        "pop": 56171,
        "id": "APaZzlGCEeuoLBtzTJMe",
        "sick": 0,
        "invisible": false
    },
    {
        "lastUpdated": "2021-04-24T17:23:13.057Z",
        "id": "ATxF6ZoDJ2ibdE6ZRYIX",
        "country": "RU",
        "recovered": 35651,
        "pop": 984000,
        "vaccinated": 0,
        "name": "Buryatia",
        "dead": 833,
        "longitude": 112.4061,
        "infected": 36978,
        "latitude": 54.8331,
        "sick": 494,
        "invisible": false
    },
    {
        "longitude": -63.582687,
        "latitude": 45.65107,
        "pop": 971395,
        "id": "AVCpxeh0fuH2WrHWNDYH",
        "dead": 67,
        "lastUpdated": "2021-04-24T17:23:05.154Z",
        "infected": 1938,
        "vaccinated": 0,
        "recovered": 1871,
        "name": "Nova Scotia",
        "country": "CA",
        "state": "NS",
        "sick": 0,
        "invisible": false
    },
    {
        "dead": 1563,
        "name": "Montana",
        "infected": 108048,
        "state": "MT",
        "longitude": -109.128641,
        "vaccinated": 421707,
        "id": "AcULcZBozObOhwuRKMjJ",
        "country": "US",
        "lastUpdated": "2021-04-24T17:23:05.736Z",
        "recovered": 0,
        "latitude": 47.012918,
        "pop": 1062000,
        "sick": 106485,
        "invisible": false
    },
    {
        "infected": 13308,
        "vaccinated": 0,
        "pop": 9275000,
        "recovered": 13218,
        "longitude": 71.2761,
        "id": "AiIGs3ybYZZhm1ytVopr",
        "name": "Tajikistan",
        "country": "TJ",
        "lastUpdated": "2021-04-24T17:38:03.347Z",
        "latitude": 38.861,
        "dead": 90,
        "sick": 0,
        "invisible": false
    },
    {
        "lastUpdated": "2021-04-24T17:23:08.471Z",
        "infected": 937,
        "longitude": 116.01609,
        "vaccinated": 0,
        "country": "CN",
        "pop": 45200000,
        "name": "Jiangxi",
        "recovered": 936,
        "id": "AmBYm5J6E9Cuez1FQjiN",
        "dead": 1,
        "latitude": 27.285971,
        "sick": 0,
        "invisible": false
    },
    {
        "id": "AoLhHdTydeWTfmp9koEX",
        "dead": 5543,
        "recovered": 0,
        "longitude": -3.7837,
        "latitude": 52.1307,
        "name": "Wales",
        "pop": 3136000,
        "vaccinated": 0,
        "infected": 211162,
        "country": "GB",
        "lastUpdated": "2021-04-24T17:23:05.484Z",
        "state": "WA",
        "sick": 205619,
        "invisible": false
    },
    {
        "longitude": 90.3982,
        "infected": 22242,
        "dead": 521,
        "vaccinated": 0,
        "name": "Khakassia",
        "country": "RU",
        "latitude": 53.0452,
        "id": "Avls64fLKoEsBFH0Ol0b",
        "recovered": 21443,
        "lastUpdated": "2021-04-24T17:23:13.062Z",
        "pop": 537000,
        "sick": 278,
        "invisible": false
    },
    {
        "id": "AwN0CScPDApcLFgz6e3z",
        "recovered": 84167,
        "infected": 120736,
        "longitude": 1.659626,
        "lastUpdated": "2021-04-24T17:38:03.342Z",
        "name": "Algeria",
        "dead": 3198,
        "pop": 41320000,
        "vaccinated": 75000,
        "latitude": 28.033886,
        "country": "DZ",
        "sick": 33371,
        "invisible": false
    },
    {
        "name": "Croatia",
        "vaccinated": 593972,
        "longitude": 15.2,
        "id": "B82Ef45M8cDu4q7VsSHF",
        "dead": 6815,
        "infected": 321372,
        "lastUpdated": "2021-04-24T17:38:03.340Z",
        "recovered": 298210,
        "latitude": 45.099998,
        "pop": 4076000,
        "country": "HR",
        "sick": 16347,
        "invisible": false
    },
    {
        "longitude": 8.081666,
        "infected": 5143,
        "dead": 191,
        "lastUpdated": "2021-04-24T17:38:03.350Z",
        "recovered": 4812,
        "name": "Niger",
        "latitude": 17.6077881,
        "vaccinated": 1366,
        "country": "NE",
        "id": "BENubqQInFUJzhpZTsLT",
        "pop": 23716000,
        "sick": 140,
        "invisible": false
    },
    {
        "longitude": -76.98432,
        "recovered": 0,
        "country": "US",
        "vaccinated": 2739764,
        "name": "Maryland",
        "latitude": 39.509109,
        "pop": 6043000,
        "infected": 442351,
        "id": "BF51mWl51fgEcyBpCSzb",
        "state": "MD",
        "lastUpdated": "2021-04-24T17:23:05.734Z",
        "dead": 8648,
        "sick": 433703,
        "invisible": false
    },
    {
        "id": "BGg6yVU5VP71B8NXU0oh",
        "pop": 9508000,
        "recovered": 342102,
        "vaccinated": 92000,
        "country": "BY",
        "name": "Belarus",
        "latitude": 53.709808,
        "infected": 351674,
        "longitude": 27.953388,
        "lastUpdated": "2021-04-24T17:38:03.340Z",
        "dead": 2483,
        "sick": 7089,
        "invisible": false
    },
    {
        "pop": 3319000,
        "longitude": 0.1713,
        "id": "BGtoyzb7y54LVlJ91rbf",
        "lastUpdated": "2021-04-24T04:08:07.998Z",
        "infected": 202721,
        "country": "FR",
        "name": "Normandie",
        "recovered": 11772,
        "vaccinated": 0,
        "latitude": 48.8799,
        "dead": 2946,
        "sick": 188003,
        "invisible": false
    },
    {
        "dead": 0,
        "pop": 5616000,
        "recovered": 0,
        "name": "South West",
        "infected": 220371,
        "latitude": 50.7772,
        "lastUpdated": "2021-04-24T17:23:05.486Z",
        "longitude": -3.9995,
        "country": "GB",
        "id": "BQqMOlPFD36ZEDTGd3WC",
        "vaccinated": 0,
        "state": "EN",
        "sick": 220371,
        "invisible": false
    },
    {
        "id": "BTEESCuD2ZbS1afunR2A",
        "name": "Arizona",
        "state": "AZ",
        "latitude": 34.048927,
        "recovered": 0,
        "longitude": -111.093735,
        "infected": 857347,
        "country": "US",
        "vaccinated": 2832476,
        "pop": 7172000,
        "lastUpdated": "2021-04-24T17:23:05.733Z",
        "dead": 17238,
        "sick": 840109,
        "invisible": false
    },
    {
        "infected": 29149,
        "country": "RU",
        "lastUpdated": "2021-04-24T17:23:13.062Z",
        "pop": 949000,
        "dead": 849,
        "recovered": 27715,
        "longitude": 32.6677,
        "id": "BUb7oDHcBM4lQ5cufNoG",
        "latitude": 54.9883,
        "name": "Smolensk Oblast",
        "vaccinated": 0,
        "sick": 585,
        "invisible": false
    },
    {
        "recovered": 38864,
        "longitude": 50.2097,
        "name": "Kirov Oblast",
        "dead": 343,
        "vaccinated": 0,
        "lastUpdated": "2021-04-24T17:23:13.056Z",
        "latitude": 58.4199,
        "pop": 1283000,
        "infected": 41657,
        "country": "RU",
        "id": "BWojXmuKU3szKlS7CE4k",
        "sick": 2450,
        "invisible": false
    },
    {
        "id": "BZwZOAlDJ8AIiaRVLyC9",
        "country": "PL",
        "recovered": 0,
        "longitude": 14.552812,
        "lastUpdated": "2021-04-24T04:13:57.633Z",
        "name": "Zachodniopomorskie",
        "dead": 2510,
        "vaccinated": 0,
        "infected": 125984,
        "pop": 1676000,
        "latitude": 53.428543,
        "sick": 123474,
        "invisible": false
    },
    {
        "dead": 0,
        "name": "Unknown Chile region",
        "lastUpdated": "2021-04-24T17:23:05.927Z",
        "id": "BbiuZcm8oURX7cZwaa5U",
        "recovered": 1084831,
        "vaccinated": 7849346,
        "longitude": -70.6693,
        "invisible": true,
        "country": "CL",
        "latitude": -33.4489,
        "infected": 55,
        "sick": 0
    },
    {
        "recovered": 31864,
        "lastUpdated": "2021-04-24T17:38:03.345Z",
        "vaccinated": 267293,
        "name": "Malawi",
        "pop": 18620000,
        "dead": 1145,
        "id": "BfT8o5DaEixC6JIZ28kY",
        "infected": 33989,
        "latitude": -13.2543,
        "country": "MW",
        "longitude": 34.3015,
        "sick": 980,
        "invisible": false
    },
    {
        "id": "BnpMamidC5yYzeK8tPUL",
        "pop": 10860000,
        "longitude": 29.9188862,
        "recovered": 773,
        "infected": 3805,
        "name": "Burundi",
        "country": "BI",
        "latitude": -3.3730559,
        "lastUpdated": "2021-04-24T17:38:03.351Z",
        "dead": 6,
        "vaccinated": 0,
        "sick": 3026,
        "invisible": false
    },
    {
        "longitude": 166.9315,
        "vaccinated": 168,
        "country": "NR",
        "id": "BoBBjkVzg5P5uyEMK7sm",
        "infected": 0,
        "pop": 12581,
        "name": "Nauru",
        "recovered": 0,
        "latitude": -0.5228,
        "dead": 0,
        "lastUpdated": "2021-04-24T03:18:43.388Z",
        "sick": 0,
        "invisible": false
    },
    {
        "country": "PL",
        "pop": 5385000,
        "longitude": 21.002,
        "name": "Mazowieckie",
        "dead": 8029,
        "id": "BrToMzyq8y2xdwXn75kM",
        "lastUpdated": "2021-04-24T04:17:52.418Z",
        "recovered": 0,
        "infected": 373557,
        "vaccinated": 0,
        "latitude": 52.257,
        "sick": 365528,
        "invisible": false
    },
    {
        "latitude": 40.719042,
        "state": "NY",
        "recovered": 0,
        "name": "New York",
        "pop": 19540000,
        "country": "US",
        "infected": 2069006,
        "dead": 52145,
        "longitude": -73.982597,
        "id": "C3BCUzV80z9GfiuByIcr",
        "lastUpdated": "2021-04-24T17:23:05.732Z",
        "vaccinated": 8724403,
        "sick": 2016861,
        "invisible": false
    },
    {
        "name": "Czechia",
        "infected": 1618068,
        "country": "CZ",
        "dead": 28920,
        "id": "C6S76AggdWVU8G22jFHQ",
        "lastUpdated": "2021-04-24T17:38:03.337Z",
        "recovered": 1524041,
        "latitude": 49.731626,
        "pop": 10650000,
        "vaccinated": 1794701,
        "longitude": 15.359413,
        "sick": 65107,
        "invisible": false
    },
    {
        "country": "BH",
        "longitude": 50.557701,
        "name": "Bahrain",
        "lastUpdated": "2021-04-24T17:38:03.342Z",
        "recovered": 158133,
        "infected": 169254,
        "id": "C7cj4nwRITs13KnaJrQ2",
        "latitude": 26.0667,
        "dead": 617,
        "pop": 1493000,
        "vaccinated": 642572,
        "sick": 10504,
        "invisible": false
    },
    {
        "pop": 3073500,
        "longitude": -101.430756,
        "name": "Coahuila",
        "lastUpdated": "2021-04-24T17:23:05.206Z",
        "infected": 67708,
        "id": "CCUFp4urvgXPo5unfMGy",
        "latitude": 26.909979,
        "dead": 5573,
        "vaccinated": 0,
        "country": "MX",
        "recovered": 0,
        "sick": 62135,
        "invisible": false
    },
    {
        "vaccinated": 0,
        "latitude": 27.0238,
        "longitude": 74.2179,
        "id": "CKZCZTPlrcq5fbfUPA9k",
        "recovered": 367485,
        "country": "IN",
        "infected": 498628,
        "name": "Rajasthan",
        "pop": 68890000,
        "lastUpdated": "2021-04-24T17:23:04.532Z",
        "dead": 3527,
        "sick": 127616,
        "invisible": false
    },
    {
        "vaccinated": 0,
        "longitude": 86.2199,
        "country": "RU",
        "infected": 16790,
        "latitude": 50.6182,
        "name": "Altai",
        "recovered": 16495,
        "pop": 218000,
        "dead": 228,
        "id": "CX8z9U1iABNBhc1VK2Dy",
        "lastUpdated": "2021-04-24T17:23:13.063Z",
        "sick": 67,
        "invisible": false
    },
    {
        "dead": 2093,
        "latitude": 13.803,
        "lastUpdated": "2021-04-24T17:38:03.343Z",
        "recovered": 64340,
        "vaccinated": 622912,
        "pop": 6378000,
        "infected": 68318,
        "longitude": -88.9053,
        "name": "El Salvador",
        "id": "Cgvmtle61ehMvCzRzYx7",
        "country": "SV",
        "sick": 1885,
        "invisible": false
    },
    {
        "vaccinated": 0,
        "id": "D4WkbqyUXY1pazbOxfKx",
        "recovered": 8154,
        "lastUpdated": "2021-04-24T17:23:13.064Z",
        "infected": 8315,
        "pop": 144000,
        "name": "Magadan Oblast",
        "country": "RU",
        "dead": 99,
        "longitude": 153.915,
        "latitude": 62.6643,
        "sick": 62,
        "invisible": false
    },
    {
        "longitude": 82.6765,
        "recovered": 31040,
        "name": "Tomsk Oblast",
        "vaccinated": 0,
        "country": "RU",
        "latitude": 58.897,
        "lastUpdated": "2021-04-24T17:23:13.061Z",
        "dead": 386,
        "infected": 31979,
        "pop": 1078000,
        "id": "DAp3PFow4BuCMYWWTo3i",
        "sick": 553,
        "invisible": false
    },
    {
        "longitude": 44.818474,
        "infected": 212878,
        "country": "AM",
        "dead": 4001,
        "vaccinated": 565,
        "name": "Armenia",
        "latitude": 40.259003,
        "id": "DCJCtZoBTWQ4mzdDNljD",
        "recovered": 193360,
        "lastUpdated": "2021-04-24T17:38:03.341Z",
        "pop": 2973000,
        "sick": 15517,
        "invisible": false
    },
    {
        "latitude": 54.2369,
        "lastUpdated": "2021-04-24T17:23:13.063Z",
        "id": "DKwy7USk22oXUQGEvO42",
        "vaccinated": 0,
        "dead": 236,
        "name": "Mordovia",
        "pop": 834000,
        "longitude": 44.0684,
        "country": "RU",
        "recovered": 17925,
        "infected": 19888,
        "sick": 1727,
        "invisible": false
    },
    {
        "country": "GB",
        "latitude": 53.6221,
        "lastUpdated": "2021-04-24T17:23:05.484Z",
        "id": "DPwBt2aJuwF0O71vwfM9",
        "vaccinated": 0,
        "name": "North West",
        "recovered": 0,
        "state": "EN",
        "dead": 0,
        "longitude": -2.5945,
        "pop": 7300000,
        "infected": 605295,
        "sick": 605295,
        "invisible": false
    },
    {
        "name": "Bermuda",
        "longitude": -64.75737,
        "dead": 23,
        "country": "BM",
        "vaccinated": 30094,
        "pop": 65440,
        "lastUpdated": "2021-04-24T17:38:03.352Z",
        "infected": 2315,
        "recovered": 1572,
        "latitude": 32.3213844,
        "id": "DZyTD0Mu5WIcK6yTcJ91",
        "sick": 720,
        "invisible": false
    },
    {
        "pop": 35446,
        "country": "TC",
        "recovered": 2326,
        "infected": 2376,
        "name": "Turks and Caicos",
        "latitude": 21.694,
        "vaccinated": 12935,
        "dead": 17,
        "lastUpdated": "2021-04-24T17:38:03.352Z",
        "longitude": -71.7979,
        "id": "DaMrRSIGJXIG36nW0Pnc",
        "sick": 33,
        "invisible": false
    },
    {
        "pop": 2035000,
        "infected": 182975,
        "latitude": 39.2796,
        "lastUpdated": "2021-04-24T03:52:13.331Z",
        "longitude": -3.0977,
        "recovered": 0,
        "id": "Dbng0NBTH41EEwBxhMzE",
        "country": "ES",
        "vaccinated": 0,
        "name": "Castilla La Mancha",
        "state": "CM",
        "dead": 5840,
        "sick": 177135,
        "invisible": false
    },
    {
        "lastUpdated": "2021-04-24T04:17:31.686Z",
        "pop": 3361000,
        "recovered": 0,
        "latitude": 50.023,
        "id": "DcQ3D0WkacXEbv6iznRB",
        "longitude": 20.006,
        "dead": 4972,
        "name": "Malopolskie",
        "infected": 213354,
        "country": "PL",
        "vaccinated": 0,
        "sick": 208382,
        "invisible": false
    },
    {
        "id": "DdBt8qsG6A3g92oOR3ow",
        "dead": 0,
        "longitude": 113.551262,
        "recovered": 48,
        "lastUpdated": "2021-04-24T17:38:03.357Z",
        "pop": 622567,
        "latitude": 22.192039,
        "name": "Macao",
        "vaccinated": 56931,
        "country": "MO",
        "infected": 49,
        "sick": 1,
        "invisible": false
    },
    {
        "latitude": 25.467,
        "vaccinated": 0,
        "infected": 15786,
        "country": "IN",
        "id": "Dh0O1vmhrVfmsCsfZCUg",
        "recovered": 14384,
        "pop": 2651000,
        "dead": 158,
        "name": "Meghalaya",
        "lastUpdated": "2021-04-24T17:23:04.535Z",
        "longitude": 91.3662,
        "sick": 1244,
        "invisible": false
    },
    {
        "lastUpdated": "2021-04-24T17:23:13.053Z",
        "infected": 86575,
        "country": "RU",
        "longitude": 41.8259,
        "latitude": 47.6853,
        "name": "Rostov Oblast",
        "recovered": 77517,
        "id": "DqzAhNFTJFQVm88ma21P",
        "dead": 4004,
        "pop": 4220000,
        "vaccinated": 0,
        "sick": 5054,
        "invisible": false
    },
    {
        "country": "US",
        "name": "Wyoming",
        "pop": 577737,
        "state": "WY",
        "latitude": 42.962334,
        "longitude": -107.534868,
        "vaccinated": 192173,
        "id": "DrGzziUglmBognCGY7R2",
        "infected": 57696,
        "recovered": 0,
        "dead": 705,
        "lastUpdated": "2021-04-24T17:23:05.737Z",
        "sick": 56991,
        "invisible": false
    },
    {
        "longitude": 78.9629,
        "id": "DsTHxwSGDvMd4Hnsc21k",
        "country": "IN",
        "name": "Vaccinations in India",
        "infected": 0,
        "lastUpdated": "2021-04-24T03:19:27.982Z",
        "dead": 0,
        "invisible": true,
        "vaccinated": 113584269,
        "latitude": 20.5937,
        "recovered": 0,
        "sick": 0
    },
    {
        "dead": 9950,
        "recovered": 285692,
        "pop": 10740000,
        "id": "Dtr1lap1RpJpXJdXGJiW",
        "longitude": 23.7275,
        "name": "Greece",
        "lastUpdated": "2021-04-24T17:38:03.340Z",
        "infected": 331730,
        "vaccinated": 1924630,
        "country": "GR",
        "latitude": 37.9838,
        "sick": 36088,
        "invisible": false
    },
    {
        "lastUpdated": "2021-04-24T17:23:13.054Z",
        "id": "E8vIyXLVNtcY9dxLHICp",
        "vaccinated": 0,
        "pop": 2623000,
        "recovered": 48636,
        "country": "RU",
        "latitude": 58.8232,
        "longitude": 56.5872,
        "name": "Perm Krai",
        "infected": 53837,
        "dead": 2123,
        "sick": 3078,
        "invisible": false
    },
    {
        "pop": 3692000,
        "dead": 452,
        "country": "RU",
        "vaccinated": 0,
        "longitude": 66.9483,
        "id": "EHKZ6ivhrJUs3XqNDBOw",
        "infected": 34842,
        "latitude": 56.9634,
        "name": "Tyumen Oblast",
        "lastUpdated": "2021-04-24T17:23:13.057Z",
        "recovered": 33217,
        "sick": 1173,
        "invisible": false
    },
    {
        "country": "TW",
        "longitude": 121.563698,
        "infected": 1097,
        "vaccinated": 39221,
        "recovered": 1045,
        "pop": 23780000,
        "lastUpdated": "2021-04-24T17:38:03.354Z",
        "dead": 12,
        "name": "Taiwan",
        "id": "EKTfs8e7M6DXzI1HqyyX",
        "latitude": 25.03841,
        "sick": 40,
        "invisible": false
    },
    {
        "country": "CR",
        "lastUpdated": "2021-04-24T17:38:03.341Z",
        "pop": 4906000,
        "infected": 236930,
        "longitude": -84.387618,
        "name": "Costa Rica",
        "vaccinated": 450593,
        "latitude": 10.327273,
        "id": "EQzJvzVHKjs8kLmK7BMu",
        "recovered": 199982,
        "dead": 3136,
        "sick": 33812,
        "invisible": false
    },
    {
        "dead": 6019,
        "recovered": 361493,
        "country": "IN",
        "infected": 467640,
        "vaccinated": 0,
        "name": "Gujarat",
        "id": "ERwk9R9en4m9WbdoMbIg",
        "lastUpdated": "2021-04-24T17:23:04.533Z",
        "pop": 62700000,
        "longitude": 71.1924,
        "latitude": 22.2587,
        "sick": 100128,
        "invisible": false
    },
    {
        "longitude": 42.5884,
        "lastUpdated": "2021-04-24T17:23:13.053Z",
        "pop": 1155000,
        "latitude": 63.2853,
        "recovered": 57776,
        "vaccinated": 0,
        "country": "RU",
        "id": "EVMBsgCJedjHy91mDYEC",
        "dead": 921,
        "name": "Arkhangelsk Oblast",
        "infected": 61547,
        "sick": 2850,
        "invisible": false
    },
    {
        "country": "IN",
        "id": "Esl5UlCVB9s8pmGB5Ofr",
        "name": "Chandigarh",
        "lastUpdated": "2021-04-24T17:23:04.534Z",
        "pop": 1055000,
        "infected": 37943,
        "latitude": 30.7333,
        "recovered": 32608,
        "dead": 433,
        "longitude": 76.7794,
        "vaccinated": 0,
        "sick": 4902,
        "invisible": false
    },
    {
        "infected": 122691,
        "vaccinated": 0,
        "dead": 3955,
        "name": "Lubelskie",
        "lastUpdated": "2021-04-24T04:16:10.193Z",
        "pop": 2148000,
        "country": "PL",
        "latitude": 51.24,
        "longitude": 22.653,
        "id": "Esy1La2CxwH5uB8bGVWZ",
        "recovered": 0,
        "sick": 118736,
        "invisible": false
    },
    {
        "dead": 2246,
        "state": "PR",
        "vaccinated": 1077545,
        "latitude": 18.200178,
        "pop": 3195000,
        "country": "US",
        "name": "Puerto Rico",
        "lastUpdated": "2021-04-24T17:23:05.737Z",
        "alwaysShow": true,
        "infected": 237731,
        "recovered": 0,
        "longitude": -66.664513,
        "id": "F4rPrEVGAIMM5rfPEMv4",
        "sick": 235485,
        "invisible": false
    },
    {
        "latitude": -11.6455,
        "vaccinated": 0,
        "longitude": 43.3333,
        "pop": 832322,
        "id": "F8LnLqvuWoWh8awBqiw1",
        "country": "KM",
        "dead": 146,
        "name": "Comoros",
        "infected": 3829,
        "recovered": 3650,
        "lastUpdated": "2021-04-24T17:38:03.351Z",
        "sick": 33,
        "invisible": false
    },
    {
        "lastUpdated": "2021-04-24T17:38:03.344Z",
        "longitude": 67.709953,
        "pop": 35530000,
        "dead": 2572,
        "id": "FCDmlmnIIswd8bQiUjfN",
        "recovered": 52363,
        "vaccinated": 240000,
        "country": "AF",
        "infected": 58733,
        "name": "Afghanistan",
        "latitude": 33.93911,
        "sick": 3798,
        "invisible": false
    },
    {
        "lastUpdated": "2021-04-24T17:23:08.470Z",
        "recovered": 585,
        "pop": 30480000,
        "id": "FErOU1m4Tj7jIkRam3vF",
        "longitude": 106.912254,
        "infected": 594,
        "country": "CN",
        "latitude": 29.431585,
        "dead": 6,
        "name": "Chongqing",
        "vaccinated": 0,
        "sick": 3,
        "invisible": false
    },
    {
        "infected": 264198,
        "lastUpdated": "2021-04-24T17:38:03.340Z",
        "name": "Kuwait",
        "recovered": 247136,
        "latitude": 29.311661,
        "vaccinated": 822000,
        "id": "FZsUkhxBEgqsPb4eO0PN",
        "dead": 1502,
        "longitude": 47.481766,
        "pop": 4137000,
        "country": "KW",
        "sick": 15560,
        "invisible": false
    },
    {
        "lastUpdated": "2021-04-24T17:23:04.492Z",
        "dead": 4088,
        "longitude": -37.0717,
        "recovered": 0,
        "latitude": -10.9111,
        "name": "Sergipe",
        "infected": 195191,
        "id": "FboWeolpM62SZCLwdilT",
        "vaccinated": 0,
        "pop": 2278308,
        "state": "SE",
        "country": "BR",
        "sick": 191103,
        "invisible": false
    },
    {
        "name": "Tamil Nadu",
        "recovered": 1109450,
        "vaccinated": 61,90,000,
        "lastUpdated": "2021-04-24T17:23:04.531Z",
        "country": "IN",
        "latitude": 11.1271,
        "longitude": 78.6569,
        "pop": 67860000,
        "infected": 12,49,292,
        "dead": 14,612,
        "id": "FeS45oMNC27pI17F0xEV",
        "sick": 100668,
        "invisible": false
    },
    {
        "longitude": -70.430399,
        "lastUpdated": "2021-04-24T17:38:03.340Z",
        "name": "Dominican Republic",
        "country": "DO",
        "latitude": 18.947829,
        "id": "FuiVEJvWb0QMCpxJ3563",
        "pop": 10770000,
        "vaccinated": 909898,
        "dead": 3448,
        "infected": 263470,
        "recovered": 220678,
        "sick": 39344,
        "invisible": false
    },
    {
        "country": "IN",
        "longitude": 79.0193,
        "recovered": 326997,
        "lastUpdated": "2021-04-24T17:23:04.532Z",
        "dead": 1961,
        "id": "FyC551oNwmENxbr9Yght",
        "pop": 35190000,
        "name": "Telengana",
        "infected": 387106,
        "latitude": 18.1124,
        "vaccinated": 0,
        "sick": 58148,
        "invisible": false
    },
    {
        "vaccinated": 996484,
        "lastUpdated": "2021-04-24T17:38:03.339Z",
        "dead": 11458,
        "infected": 379476,
        "name": "Slovakia",
        "longitude": 19.699,
        "pop": 5450000,
        "recovered": 255300,
        "country": "SK",
        "id": "FzIDXoqWnTI3nUfhPyT2",
        "latitude": 48.669,
        "sick": 112718,
        "invisible": false
    },
    {
        "country": "PK",
        "recovered": 686488,
        "name": "Pakistan",
        "pop": 197000000,
        "dead": 16999,
        "latitude": 30.37532,
        "lastUpdated": "2021-04-24T17:38:03.338Z",
        "infected": 790016,
        "longitude": 69.345116,
        "vaccinated": 1300000,
        "id": "GAp7Wb6IMhdgbvEtMza9",
        "sick": 86529,
        "invisible": false
    },
    {
        "recovered": 277189,
        "latitude": 31.1471,
        "longitude": 75.3412,
        "name": "Punjab",
        "country": "IN",
        "dead": 8356,
        "vaccinated": 0,
        "lastUpdated": "2021-04-24T17:23:04.533Z",
        "id": "GGru8cG08mANO8XDDUtZ",
        "infected": 332110,
        "pop": 27980000,
        "sick": 46565,
        "invisible": false
    },
    {
        "recovered": 490457,
        "pop": 9400000,
        "name": "United Arab Emirates",
        "latitude": 23.424076,
        "dead": 1569,
        "lastUpdated": "2021-04-24T17:38:03.339Z",
        "infected": 508925,
        "longitude": 53.847816,
        "vaccinated": 10001241,
        "id": "GHzBIsHy2GiBc5JV2HMs",
        "country": "AE",
        "sick": 16899,
        "invisible": false
    },
    {
        "recovered": 0,
        "id": "GLViSIjDjwvptOphedAu",
        "dead": 7,
        "lastUpdated": "2021-04-24T17:23:05.738Z",
        "country": "US",
        "invisible": true,
        "name": "Grand Princess",
        "vaccinated": 0,
        "infected": 122,
        "latitude": 37.0902,
        "longitude": -95.7129,
        "sick": 115
    },
    {
        "pop": 10100000,
        "dead": 0,
        "lastUpdated": "2021-04-24T17:23:05.485Z",
        "recovered": 0,
        "latitude": 51.5074,
        "country": "GB",
        "longitude": -0.1278,
        "vaccinated": 0,
        "name": "London",
        "id": "GPtoS0Yy2EnNafpmmTqY",
        "state": "EN",
        "infected": 717775,
        "sick": 717775,
        "invisible": false
    },
    {
        "recovered": 0,
        "lastUpdated": "2021-04-24T17:23:05.731Z",
        "state": "CA",
        "vaccinated": 17946815,
        "latitude": 36.621981,
        "dead": 61402,
        "country": "US",
        "pop": 39560000,
        "name": "California",
        "longitude": -119.339046,
        "id": "Gh46r6vuaY7fbGt3IboN",
        "infected": 3730477,
        "sick": 3669075,
        "invisible": false
    },
    {
        "latitude": 20.4283,
        "id": "GljWeVnun6o9DeW6rlEm",
        "longitude": 72.8397,
        "recovered": 4352,
        "lastUpdated": "2021-04-24T17:23:04.536Z",
        "pop": 343709,
        "infected": 6307,
        "vaccinated": 0,
        "country": "IN",
        "dead": 4,
        "name": "Dadra and Nagar Haveli",
        "sick": 1951,
        "invisible": false
    },
    {
        "id": "GpF8ULuKOQiFDCUHN44h",
        "country": "US",
        "lastUpdated": "2021-04-24T17:23:05.734Z",
        "infected": 446550,
        "state": "OK",
        "vaccinated": 1489601,
        "pop": 3943000,
        "recovered": 0,
        "name": "Oklahoma",
        "dead": 6716,
        "longitude": -97.145514,
        "latitude": 35.87189,
        "sick": 439834,
        "invisible": false
    },
    {
        "country": "RU",
        "longitude": 41.483,
        "name": "Ivanovo Oblast",
        "latitude": 57.1057,
        "dead": 1133,
        "lastUpdated": "2021-04-24T17:23:13.059Z",
        "recovered": 32372,
        "id": "GsecjBfopdgTOnyRgtCA",
        "infected": 34051,
        "vaccinated": 0,
        "pop": 1014000,
        "sick": 546,
        "invisible": false
    },
    {
        "vaccinated": 0,
        "state": "BA",
        "dead": 1159,
        "infected": 70806,
        "longitude": 11.35,
        "name": "P.A. Bolzano",
        "pop": 520891,
        "lastUpdated": "2021-04-24T17:23:06.188Z",
        "recovered": 68908,
        "latitude": 46.5,
        "country": "IT",
        "id": "Gzx6GX1qhBm714BkEC6l",
        "sick": 739,
        "invisible": false
    },
    {
        "pop": 24710000,
        "latitude": 42.83263,
        "recovered": 376,
        "lastUpdated": "2021-04-24T17:23:08.470Z",
        "infected": 379,
        "country": "CN",
        "vaccinated": 0,
        "longitude": 113.750972,
        "id": "H3JeVigVbo5CSYfZG4WI",
        "name": "Inner Mongolia",
        "dead": 1,
        "sick": 2,
        "invisible": false
    },
    {
        "country": "US",
        "id": "H3bDg4eV30up4WWrIDAS",
        "infected": 312840,
        "recovered": 0,
        "pop": 3034000,
        "name": "Nevada",
        "dead": 5422,
        "state": "NV",
        "lastUpdated": "2021-04-24T17:23:05.735Z",
        "longitude": -116.724977,
        "vaccinated": 1162079,
        "latitude": 39.74536,
        "sick": 307418,
        "invisible": false
    },
    {
        "longitude": -38.526669,
        "recovered": 0,
        "dead": 16947,
        "pop": 9075649,
        "id": "HEMWNnFxeFEoeOCBOLJD",
        "latitude": -3.731862,
        "name": "Ceará",
        "country": "BR",
        "vaccinated": 0,
        "lastUpdated": "2021-04-24T17:23:04.492Z",
        "state": "CE",
        "infected": 645440,
        "sick": 628493,
        "invisible": false
    },
    {
        "pop": 64060000,
<<<<<<< Updated upstream
        "dead": 16,538,
=======
        "dead": 16,538;
>>>>>>> Stashed changes
        "vaccinated": 99,50,500,
        "lastUpdated": "2021-04-24T17:23:04.531Z",
        "name": "Karnataka",
        "latitude": 15.3173,
        "id": "HN5mGmxlqlSeFSNeu1K5",
        "infected": 1690934,
        "country": "IN",
        "longitude": 75.7139,
        "recovered": 1210013,
        "sick": 234502,
        "invisible": false
    },
    {
        "id": "HRDpwyxpqW9RN0xLFyNu",
        "vaccinated": 479354,
        "recovered": 927,
        "dead": 1,
        "country": "BT",
        "infected": 1018,
        "latitude": 27.5142,
        "longitude": 90.4336,
        "lastUpdated": "2021-04-24T17:38:03.354Z",
        "name": "Bhutan",
        "pop": 807610,
        "sick": 90,
        "invisible": false
    },
    {
        "pop": 32390000,
        "lastUpdated": "2021-04-24T17:38:03.343Z",
        "latitude": 41.3775,
        "country": "UZ",
        "vaccinated": 458555,
        "name": "Uzbekistan",
        "infected": 88679,
        "id": "HRTA10dtrruDEwjJEGMp",
        "recovered": 85536,
        "longitude": 64.5853,
        "dead": 642,
        "sick": 2501,
        "invisible": false
    },
    {
        "vaccinated": 1030900,
        "state": "NM",
        "dead": 4024,
        "infected": 196221,
        "lastUpdated": "2021-04-24T17:23:05.735Z",
        "latitude": 34.138916,
        "longitude": -105.576255,
        "country": "US",
        "recovered": 0,
        "name": "New Mexico",
        "pop": 2095000,
        "id": "HSSFomRju0doHhWgW8On",
        "sick": 192197,
        "invisible": false
    },
    {
        "vaccinated": 0,
        "lastUpdated": "2021-04-24T17:23:05.926Z",
        "latitude": -40.231,
        "dead": 364,
        "country": "CL",
        "recovered": 0,
        "longitude": -72.3311,
        "name": "Los Ríos",
        "pop": 412812,
        "infected": 32492,
        "id": "HZkACHjW7NlYjg8vEMj2",
        "sick": 32128,
        "invisible": false
    },
    {
        "country": "DE",
        "infected": 38530,
        "lastUpdated": "2021-04-24T17:23:06.819Z",
        "id": "He1gSS1v50t06i3YrqvB",
        "recovered": 33187,
        "name": "Mecklenburg-Vorpommern",
        "state": "MV",
        "vaccinated": 0,
        "latitude": 53.6127,
        "dead": 965,
        "longitude": 12.4296,
        "pop": 1635000,
        "sick": 4378,
        "invisible": false
    },
    {
        "infected": 70340,
        "lastUpdated": "2021-04-24T17:23:06.179Z",
        "id": "I9EqrZfbPnkioNU4wZGz",
        "vaccinated": 0,
        "country": "IT",
        "pop": 1315000,
        "state": "65",
        "recovered": 58961,
        "dead": 2369,
        "longitude": 13.75,
        "name": "Abruzzo",
        "latitude": 42.25,
        "sick": 9010,
        "invisible": false
    },
    {
        "dead": 8,
        "infected": 2328,
        "lastUpdated": "2021-04-24T17:23:08.468Z",
        "pop": 113460000,
        "country": "CN",
        "latitude": 23.363855,
        "vaccinated": 0,
        "recovered": 2275,
        "id": "IAX0OQLVnUwU7FX0ENF1",
        "name": "Guangdong",
        "longitude": 113.373448,
        "sick": 45,
        "invisible": false
    },
    {
        "vaccinated": 0,
        "recovered": 1285,
        "name": "Henan",
        "id": "IFuMrMvSjoiX5agYvllh",
        "pop": 94000000,
        "country": "CN",
        "dead": 22,
        "latitude": 33.875408,
        "longitude": 113.484016,
        "lastUpdated": "2021-04-24T17:23:08.470Z",
        "infected": 1312,
        "sick": 5,
        "invisible": false
    },
    {
        "latitude": 37.2,
        "dead": 356,
        "lastUpdated": "2021-04-24T17:23:05.564Z",
        "infected": 21533,
        "pop": 451000,
        "longitude": -8.16667,
        "recovered": 0,
        "vaccinated": 0,
        "name": "Algarve",
        "country": "PT",
        "id": "IHqRHC8K3OZPN8gniM7V",
        "sick": 21177,
        "invisible": false
    },
    {
        "lastUpdated": "2021-04-24T17:23:05.485Z",
        "recovered": 0,
        "state": "EN",
        "infected": 327979,
        "pop": 4811000,
        "vaccinated": 0,
        "id": "INyu1R48Ppv8cfW4Nuz4",
        "dead": 0,
        "longitude": -0.995,
        "latitude": 52.87,
        "country": "GB",
        "name": "East Midlands",
        "sick": 327979,
        "invisible": false
    },
    {
        "pop": 1342600,
        "country": "MX",
        "id": "ISRKMzEDojyrZ9iyWwex",
        "lastUpdated": "2021-04-24T17:23:05.208Z",
        "latitude": 22.017,
        "name": "Aguascalientes",
        "infected": 25781,
        "recovered": 0,
        "longitude": -102.317,
        "dead": 2142,
        "vaccinated": 0,
        "sick": 23639,
        "invisible": false
    },
    {
        "country": "MX",
        "dead": 8624,
        "id": "IdKbgzgKLpjBFh4UPOwu",
        "pop": 5321300,
        "longitude": -100.316116,
        "latitude": 25.686613,
        "lastUpdated": "2021-04-24T17:23:05.207Z",
        "infected": 174348,
        "recovered": 0,
        "name": "Nuevo León",
        "vaccinated": 0,
        "sick": 165724,
        "invisible": false
    },
    {
        "country": "MX",
        "vaccinated": 0,
        "name": "Chihuahua",
        "recovered": 0,
        "id": "IhhiYI6T0TX4CYVPcnmH",
        "infected": 63077,
        "latitude": 28.632996,
        "longitude": -106.069099,
        "pop": 3826900,
        "dead": 5082,
        "lastUpdated": "2021-04-24T17:23:05.205Z",
        "sick": 57995,
        "invisible": false
    },
    {
        "lastUpdated": "2021-04-24T17:23:05.926Z",
        "id": "ImnOiVx9Cb8Nw7cbRcQ7",
        "vaccinated": 0,
        "name": "Ñuble",
        "pop": 480600,
        "infected": 24994,
        "latitude": -36.7,
        "dead": 447,
        "recovered": 0,
        "country": "CL",
        "longitude": -72.57,
        "sick": 24547,
        "invisible": false
    },
    {
        "lastUpdated": "2021-04-24T17:38:03.347Z",
        "vaccinated": 0,
        "id": "InZ38sIqyK7FN7XAOZoX",
        "longitude": -73.0513,
        "country": "HT",
        "recovered": 11945,
        "pop": 10980000,
        "infected": 12944,
        "name": "Haiti",
        "latitude": 19.0558,
        "dead": 251,
        "sick": 748,
        "invisible": false
    },
    {
        "id": "IvQkDJkTAsoIqPRAU25n",
        "country": "US",
        "dead": 19917,
        "longitude": -83.280125,
        "state": "GA",
        "vaccinated": 3565858,
        "infected": 1091339,
        "pop": 10520000,
        "latitude": 32.528564,
        "name": "Georgia (US)",
        "lastUpdated": "2021-04-24T17:23:05.732Z",
        "recovered": 0,
        "sick": 1071422,
        "invisible": false
    },
    {
        "infected": 2601,
        "name": "New Zealand",
        "pop": 4794000,
        "longitude": 172.488081,
        "dead": 26,
        "latitude": -42.8285,
        "id": "IvVhpOoGpH6JVkGyUhXN",
        "country": "NZ",
        "lastUpdated": "2021-04-24T17:38:03.352Z",
        "recovered": 2542,
        "vaccinated": 140580,
        "sick": 33,
        "invisible": false
    },
    {
        "id": "IwYKiIVY18NGwdGQFGWW",
        "vaccinated": 0,
        "name": "Arunachal Pradesh",
        "pop": 1255000,
        "recovered": 16940,
        "latitude": 28.218,
        "dead": 56,
        "longitude": 94.7278,
        "lastUpdated": "2021-04-24T17:23:04.534Z",
        "infected": 17546,
        "country": "IN",
        "sick": 550,
        "invisible": false
    },
    {
        "name": "Venezuela",
        "infected": 189381,
        "lastUpdated": "2021-04-24T17:38:03.342Z",
        "dead": 2009,
        "country": "VE",
        "vaccinated": 250000,
        "recovered": 172035,
        "longitude": -66.5897,
        "latitude": 6.4238,
        "id": "J3mZXlfEnnJx4CDZLvRG",
        "pop": 28870000,
        "sick": 15337,
        "invisible": false
    },
    {
        "latitude": 44.8229,
        "name": "Adygea",
        "longitude": 40.1754,
        "infected": 14363,
        "dead": 171,
        "pop": 453000,
        "recovered": 13798,
        "id": "JOJVBvOnsLDJPVeYJaI2",
        "lastUpdated": "2021-04-24T17:23:13.064Z",
        "country": "RU",
        "vaccinated": 0,
        "sick": 394,
        "invisible": false
    },
    {
        "longitude": 33.4299,
        "name": "Cyprus",
        "recovered": 39061,
        "pop": 1170000,
        "vaccinated": 161389,
        "country": "CY",
        "lastUpdated": "2021-04-24T17:38:03.344Z",
        "latitude": 35.1264,
        "infected": 60681,
        "dead": 297,
        "id": "JQByE4l2OA6sGOqIcWrM",
        "sick": 21323,
        "invisible": false
    },
    {
        "name": "Bihar",
        "lastUpdated": "2021-04-24T17:23:04.533Z",
        "country": "IN",
        "longitude": 85.3131,
        "pop": 99020000,
        "latitude": 25.0961,
        "recovered": 306753,
        "dead": 2087,
        "vaccinated": 0,
        "id": "JR7hOGked7CZtIs2nCV5",
        "infected": 390801,
        "sick": 81961,
        "invisible": false
    },
    {
        "name": "Guatemala",
        "pop": 17250000,
        "recovered": 195802,
        "latitude": 14.628434,
        "dead": 7395,
        "id": "JUWE6bG3b5oL7fKQMSvv",
        "vaccinated": 160282,
        "country": "GT",
        "infected": 221307,
        "longitude": -90.522713,
        "lastUpdated": "2021-04-24T17:38:03.341Z",
        "sick": 18110,
        "invisible": false
    },
    {
        "pop": 602005,
        "recovered": 62183,
        "lastUpdated": "2021-04-24T17:38:03.344Z",
        "country": "LU",
        "latitude": 49.8153,
        "dead": 790,
        "id": "JcFsHSn2WvZ5LJW42ovG",
        "longitude": 6.1296,
        "name": "Luxembourg",
        "infected": 66007,
        "vaccinated": 123137,
        "sick": 3034,
        "invisible": false
    },
    {
        "lastUpdated": "2021-04-24T17:23:05.204Z",
        "dead": 7233,
        "longitude": -115.783,
        "infected": 47367,
        "id": "Jp9ePErcc8i1aOozEAMf",
        "latitude": 31.4,
        "recovered": 0,
        "vaccinated": 0,
        "pop": 3648100,
        "name": "Baja California",
        "country": "MX",
        "sick": 40134,
        "invisible": false
    },
    {
        "longitude": 0.8248,
        "dead": 121,
        "name": "Togo",
        "country": "TG",
        "id": "JrBbirlBKGdWSdcDt7PF",
        "vaccinated": 160000,
        "recovered": 10614,
        "latitude": 8.6195,
        "pop": 7798000,
        "infected": 12742,
        "lastUpdated": "2021-04-24T17:38:03.347Z",
        "sick": 2007,
        "invisible": false
    },
    {
        "infected": 396302,
        "lastUpdated": "2021-04-24T17:38:03.339Z",
        "longitude": 25.4858,
        "recovered": 323877,
        "latitude": 42.7339,
        "name": "Bulgaria",
        "dead": 15826,
        "id": "JzZ8sbqzjutThVjkPKPL",
        "country": "BG",
        "pop": 7050000,
        "vaccinated": 546700,
        "sick": 56599,
        "invisible": false
    },
    {
        "name": "Vaccinations in Spain",
        "infected": 0,
        "id": "KAKGjanZvTHdoClfs3KB",
        "country": "ES",
        "recovered": 0,
        "vaccinated": 10141949,
        "invisible": true,
        "longitude": -3.7038,
        "lastUpdated": "2021-04-24T03:19:39.433Z",
        "latitude": 40.4168,
        "dead": 0,
        "sick": 0
    },
    {
        "vaccinated": 0,
        "country": "PL",
        "longitude": 20.709,
        "lastUpdated": "2021-04-24T04:13:18.441Z",
        "pop": 1263000,
        "infected": 70232,
        "latitude": 50.823,
        "dead": 2106,
        "id": "KGrK7gafkeWjmU6sHQd2",
        "recovered": 0,
        "name": "Świętokrzyskie",
        "sick": 68126,
        "invisible": false
    },
    {
        "vaccinated": 0,
        "infected": 85500,
        "dead": 3024,
        "name": "Sverdlovsk Oblast",
        "lastUpdated": "2021-04-24T17:23:13.053Z",
        "pop": 4325000,
        "latitude": 59.0077,
        "recovered": 79121,
        "id": "KLBR5QHW6DePaGcFxlqH",
        "longitude": 61.9316,
        "country": "RU",
        "sick": 3355,
        "invisible": false
    },
    {
        "recovered": 87624,
        "name": "Liguria",
        "pop": 1557000,
        "state": "42",
        "vaccinated": 0,
        "country": "IT",
        "lastUpdated": "2021-04-24T17:23:06.187Z",
        "id": "KLXicxFogWnu0dLp4bNK",
        "latitude": 44.5,
        "dead": 4129,
        "longitude": 8.833,
        "infected": 97929,
        "sick": 6176,
        "invisible": false
    },
    {
        "dead": 0,
        "infected": 0,
        "latitude": 56.34,
        "id": "KOrg6zo4ZtLxfLCVnYjK",
        "vaccinated": 10787419,
        "longitude": 53.3,
        "name": "Vaccinations in Russia",
        "country": "RU",
        "recovered": 0,
        "state": "",
        "lastUpdated": "2021-04-24T03:20:27.452Z",
        "invisible": true,
        "sick": 0
    },
    {
        "infected": 12967,
        "id": "KUnAVGJH6fLwFetE8A2x",
        "pop": 682000,
        "country": "RU",
        "dead": 225,
        "recovered": 12358,
        "lastUpdated": "2021-04-24T17:23:13.064Z",
        "name": "Mari El Republic",
        "latitude": 56.4385,
        "longitude": 47.9608,
        "vaccinated": 0,
        "sick": 384,
        "invisible": false
    },
    {
        "vaccinated": 0,
        "latitude": 43.4167,
        "dead": 6018,
        "recovered": 192794,
        "country": "IT",
        "pop": 3737000,
        "name": "Toscana",
        "state": "52",
        "id": "KrLrJbpDqqiXgUPGCCW9",
        "infected": 221859,
        "lastUpdated": "2021-04-24T17:23:06.189Z",
        "longitude": 11,
        "sick": 23047,
        "invisible": false
    },
    {
        "name": "Vaccinations in Australia",
        "lastUpdated": "2021-04-24T03:19:03.659Z",
        "longitude": 133.7751,
        "id": "Krjcvoad3xZIB6lDI65r",
        "vaccinated": 1785338,
        "dead": 0,
        "infected": 0,
        "country": "AU",
        "invisible": true,
        "recovered": 0,
        "latitude": -25.2744,
        "sick": 0
    },
    {
        "dead": 638,
        "infected": 100517,
        "country": "LK",
        "lastUpdated": "2021-04-24T17:38:03.343Z",
        "vaccinated": 925242,
        "pop": 21440000,
        "recovered": 94155,
        "latitude": 7.873054,
        "name": "Sri Lanka",
        "id": "KsWzJO06cf0d6LJ4ZNh9",
        "longitude": 80.771797,
        "sick": 5724,
        "invisible": false
    },
    {
        "pop": 49670000,
        "dead": 7616,
        "latitude": 15.9129,
        "vaccinated": 0,
        "infected": 1020926,
        "recovered": 931839,
        "id": "KtQIo2DoqjELtPAlyDVO",
        "lastUpdated": "2021-04-24T17:23:04.531Z",
        "longitude": 79.74,
        "name": "Andhra Pradesh",
        "country": "IN",
        "sick": 81471,
        "invisible": false
    },
    {
        "lastUpdated": "2021-04-24T17:38:03.353Z",
        "name": "Saint-Martin",
        "alwaysShow": true,
        "dead": 12,
        "vaccinated": 0,
        "latitude": 18.0708,
        "country": "FR",
        "longitude": -63.0501,
        "infected": 1720,
        "recovered": 1399,
        "pop": 32125,
        "id": "LBUtrLDKJiupXjlUNTUe",
        "sick": 309,
        "invisible": false
    },
    {
        "id": "LD8TNScpLrLRvgpQAn9T",
        "country": "RU",
        "dead": 550,
        "pop": 747000,
        "lastUpdated": "2021-04-24T17:23:13.059Z",
        "longitude": 36.9242,
        "recovered": 31631,
        "vaccinated": 0,
        "name": "Oryol Oblast",
        "infected": 33805,
        "latitude": 52.7856,
        "sick": 1624,
        "invisible": false
    },
    {
        "lastUpdated": "2021-04-24T17:38:03.352Z",
        "pop": 38557,
        "longitude": 9.5554,
        "dead": 57,
        "infected": 2866,
        "latitude": 47.166,
        "id": "LTGEU2E9MFkrCcFhZYVk",
        "name": "Liechtenstein",
        "recovered": 2724,
        "vaccinated": 8860,
        "country": "LI",
        "sick": 85,
        "invisible": false
    },
    {
        "vaccinated": 83324,
        "pop": 12720000,
        "longitude": -9.6966,
        "dead": 140,
        "latitude": 9.9456,
        "recovered": 19194,
        "country": "GN",
        "id": "LU2QWt5ao8IJa8evNYVV",
        "name": "Guinea",
        "lastUpdated": "2021-04-24T17:38:03.346Z",
        "infected": 21885,
        "sick": 2551,
        "invisible": false
    },
    {
        "longitude": -110.5,
        "infected": 72645,
        "pop": 3062000,
        "country": "MX",
        "name": "Sonora",
        "latitude": 29.6667,
        "recovered": 0,
        "vaccinated": 0,
        "id": "LYCBHrA9ms6GcxpLGPCT",
        "lastUpdated": "2021-04-24T17:23:05.205Z",
        "dead": 5855,
        "sick": 66790,
        "invisible": false
    },
    {
        "latitude": 3.9193051,
        "id": "LglKINHyQpYpFxjckbQ6",
        "pop": 563402,
        "country": "SR",
        "dead": 193,
        "lastUpdated": "2021-04-24T17:38:03.349Z",
        "infected": 9932,
        "vaccinated": 35777,
        "longitude": -56.0277824,
        "recovered": 9002,
        "name": "Suriname",
        "sick": 737,
        "invisible": false
    },
    {
        "infected": 39392,
        "pop": 1174000,
        "dead": 471,
        "latitude": 52.9399,
        "id": "LkIDKY0CMAqzbwBHyYCP",
        "country": "CA",
        "longitude": -106.4509,
        "recovered": 38921,
        "lastUpdated": "2021-04-24T17:23:05.153Z",
        "state": "SK",
        "vaccinated": 0,
        "name": "Saskatchewan",
        "sick": 0,
        "invisible": false
    },
    {
        "longitude": -12.8858,
        "recovered": 8,
        "country": "EH",
        "dead": 1,
        "name": "Western Sahara",
        "vaccinated": 0,
        "pop": 636442,
        "infected": 10,
        "latitude": 24.2155,
        "lastUpdated": "2021-04-24T17:38:03.358Z",
        "id": "LooNn6RuMiDhQnwa9svw",
        "sick": 1,
        "invisible": false
    },
    {
        "infected": 50028,
        "vaccinated": 0,
        "id": "Lsga7AvYNnY0qQ5gEfV8",
        "lastUpdated": "2021-04-24T03:50:29.785Z",
        "state": "AS",
        "recovered": 0,
        "name": "Principado de Asturias",
        "country": "ES",
        "pop": 1022000,
        "dead": 1938,
        "longitude": -5.951843,
        "latitude": 43.363129,
        "sick": 48090,
        "invisible": false
    },
    {
        "recovered": 0,
        "vaccinated": 0,
        "dead": 1783,
        "pop": 1065000,
        "latitude": 39.4937,
        "lastUpdated": "2021-04-24T03:53:43.159Z",
        "name": "Extremadura",
        "infected": 73439,
        "country": "ES",
        "longitude": -6.0679,
        "id": "LuEErlF7dVKI0eJsRjFm",
        "state": "EX",
        "sick": 71656,
        "invisible": false
    },
    {
        "recovered": 0,
        "pop": 5965000,
        "lastUpdated": "2021-04-24T17:23:05.206Z",
        "dead": 9432,
        "latitude": 21.0186,
        "country": "MX",
        "id": "M3wdiueFtwrUHiQ2rOXA",
        "longitude": -101.2591,
        "name": "Guanajuato",
        "infected": 131252,
        "vaccinated": 0,
        "sick": 121820,
        "invisible": false
    },
    {
        "pop": 4468000,
        "recovered": 0,
        "dead": 6403,
        "latitude": 37.8393,
        "country": "US",
        "infected": 440149,
        "id": "MC8MXFw9iXYybnF8v7e6",
        "vaccinated": 1776472,
        "state": "KY",
        "name": "Kentucky",
        "lastUpdated": "2021-04-24T17:23:05.734Z",
        "longitude": -84.27,
        "sick": 433746,
        "invisible": false
    },
    {
        "id": "MEjlm8VYdGA28TTTnQmf",
        "invisible": true,
        "recovered": 0,
        "country": "GB",
        "longitude": -3.436,
        "infected": 36526,
        "lastUpdated": "2021-04-24T17:23:05.486Z",
        "latitude": 55.3781,
        "dead": 112081,
        "vaccinated": 33257651,
        "name": "Unknown UK region or state",
        "sick": 0
    },
    {
        "longitude": -7.7441,
        "vaccinated": 0,
        "lastUpdated": "2021-04-24T17:23:05.558Z",
        "dead": 5335,
        "name": "Norte",
        "latitude": 41.3006,
        "infected": 334977,
        "country": "PT",
        "id": "MG4e9tulLJ010SZJvbYN",
        "recovered": 0,
        "pop": 3689000,
        "sick": 329642,
        "invisible": false
    },
    {
        "recovered": 0,
        "id": "MObRYyIriHG337L8FyFC",
        "name": "Scotland",
        "country": "GB",
        "latitude": 56.4907,
        "vaccinated": 0,
        "pop": 5450000,
        "dead": 7651,
        "lastUpdated": "2021-04-24T17:23:05.484Z",
        "longitude": -4.2026,
        "infected": 225028,
        "state": "SC",
        "sick": 217377,
        "invisible": false
    },
    {
        "state": "IN",
        "id": "MOxDkmQ4wBi1CuAdVxDE",
        "longitude": -86.1349,
        "dead": 13256,
        "recovered": 0,
        "vaccinated": 2314154,
        "latitude": 40.2672,
        "pop": 6692000,
        "lastUpdated": "2021-04-24T17:23:05.733Z",
        "infected": 712858,
        "name": "Indiana",
        "country": "US",
        "sick": 699602,
        "invisible": false
    },
    {
        "latitude": 7.54,
        "id": "MdQOfc1gNh2DOqwSP6UV",
        "pop": 24290000,
        "lastUpdated": "2021-04-24T17:38:03.344Z",
        "infected": 45765,
        "longitude": -5.5471,
        "country": "CI",
        "vaccinated": 109077,
        "recovered": 45311,
        "dead": 279,
        "name": "Ivory Coast",
        "sick": 175,
        "invisible": false
    },
    {
        "state": "NW",
        "id": "MjpYq3zQyAvSQlVVYjD2",
        "longitude": 7.6616,
        "lastUpdated": "2021-04-24T17:23:06.819Z",
        "recovered": 624046,
        "dead": 15240,
        "latitude": 51.4332,
        "pop": 17910000,
        "vaccinated": 0,
        "infected": 710217,
        "name": "Nordrhein-Westfalen",
        "country": "DE",
        "sick": 70931,
        "invisible": false
    },
    {
        "recovered": 75,
        "latitude": 37.330509,
        "pop": 6301000,
        "infected": 75,
        "lastUpdated": "2021-04-24T17:23:08.472Z",
        "longitude": 105.977203,
        "dead": 0,
        "vaccinated": 0,
        "id": "MntmjjuHljarCdt6aIeE",
        "name": "Ningxia",
        "country": "CN",
        "sick": 0,
        "invisible": false
    },
    {
        "lastUpdated": "2021-04-24T17:23:04.492Z",
        "longitude": -52.203499186,
        "vaccinated": 0,
        "id": "MuEB2UgkId5crsxi9zQT",
        "name": "Pará",
        "pop": 8513497,
        "state": "PA",
        "country": "BR",
        "recovered": 0,
        "dead": 12442,
        "infected": 462294,
        "latitude": -3.20166586,
        "sick": 449852,
        "invisible": false
    },
    {
        "name": "Lipetsk Oblast",
        "id": "N0KGfqgROVOjAxWcd8wi",
        "longitude": 39.2032,
        "vaccinated": 0,
        "pop": 1150000,
        "latitude": 52.5265,
        "dead": 630,
        "recovered": 26653,
        "country": "RU",
        "lastUpdated": "2021-04-24T17:23:13.062Z",
        "infected": 29449,
        "sick": 2166,
        "invisible": false
    },
    {
        "id": "N3XsRBwJSsNclkEf7Zz5",
        "latitude": 48.6616,
        "longitude": 9.3501,
        "recovered": 373904,
        "vaccinated": 0,
        "state": "BW",
        "name": "Baden-Württemberg",
        "infected": 429692,
        "lastUpdated": "2021-04-24T17:23:06.811Z",
        "country": "DE",
        "pop": 11020000,
        "dead": 9298,
        "sick": 46490,
        "invisible": false
    },
    {
        "pop": 3507000,
        "vaccinated": 15000,
        "id": "N7c13sCQF0G789XAVazJ",
        "lastUpdated": "2021-04-24T17:38:03.341Z",
        "name": "Bosnia and Herzegovina",
        "longitude": 17.824332,
        "country": "BA",
        "recovered": 153408,
        "infected": 194733,
        "latitude": 44.696652,
        "dead": 8203,
        "sick": 33122,
        "invisible": false
    },
    {
        "recovered": 242,
        "dead": 0,
        "country": "CN",
        "id": "NBRIGIRrJB1Ry8prDNAC",
        "longitude": 111.856857,
        "vaccinated": 0,
        "pop": 36500000,
        "lastUpdated": "2021-04-24T17:23:08.469Z",
        "infected": 249,
        "name": "Shanxi",
        "latitude": 37.242565,
        "sick": 7,
        "invisible": false
    },
    {
        "dead": 12523,
        "id": "NC64Qp5kTqAfiTuR27k8",
        "infected": 956932,
        "longitude": -79.0193,
        "country": "US",
        "latitude": 35.7596,
        "recovered": 0,
        "state": "NC",
        "lastUpdated": "2021-04-24T17:23:05.733Z",
        "vaccinated": 3940549,
        "pop": 10380000,
        "name": "North Carolina",
        "sick": 944409,
        "invisible": false
    },
    {
        "pop": 2504000,
        "vaccinated": 0,
        "recovered": 88284,
        "state": "BB",
        "country": "DE",
        "dead": 3519,
        "infected": 99677,
        "name": "Brandenburg",
        "latitude": 52.4125,
        "lastUpdated": "2021-04-24T17:23:06.818Z",
        "longitude": 12.5316,
        "id": "NJjo2gfBvnbK4xatrsUz",
        "sick": 7874,
        "invisible": false
    },
    {
        "longitude": 145.6739,
        "recovered": 0,
        "country": "US",
        "latitude": 15.0979,
        "name": "Northern Mariana Islands",
        "dead": 2,
        "lastUpdated": "2021-04-24T17:23:05.737Z",
        "infected": 162,
        "state": "MP",
        "vaccinated": 21301,
        "pop": 55144,
        "alwaysShow": true,
        "id": "NLLL6pJhJSw0lrDMD4uP",
        "sick": 160,
        "invisible": false
    },
    {
        "infected": 147433,
        "recovered": 108916,
        "id": "NMeZEcGToxXfpi16PfFV",
        "country": "IN",
        "latitude": 30.0668,
        "pop": 10080000,
        "dead": 2102,
        "vaccinated": 0,
        "name": "Uttarakhand",
        "lastUpdated": "2021-04-24T17:23:04.534Z",
        "longitude": 79.0193,
        "sick": 36415,
        "invisible": false
    },
    {
        "name": "Hessen",
        "infected": 253765,
        "longitude": 9.1624,
        "pop": 6243000,
        "recovered": 222244,
        "id": "Nk5vPgUIXsWVfbWZf15O",
        "country": "DE",
        "dead": 6819,
        "state": "HE",
        "lastUpdated": "2021-04-24T17:23:06.819Z",
        "vaccinated": 0,
        "latitude": 50.6521,
        "sick": 24702,
        "invisible": false
    },
    {
        "country": "LV",
        "longitude": 25.837107,
        "vaccinated": 205384,
        "pop": 1920000,
        "infected": 114955,
        "dead": 2101,
        "recovered": 103953,
        "id": "NmmMKy0YqA8StHdGzB5N",
        "name": "Latvia",
        "lastUpdated": "2021-04-24T17:38:03.342Z",
        "latitude": 56.96776,
        "sick": 8901,
        "invisible": false
    },
    {
        "lastUpdated": "2021-04-24T17:23:04.491Z",
        "vaccinated": 0,
        "infected": 391740,
        "state": "PE",
        "latitude": -8.472372,
        "name": "Pernambuco",
        "dead": 13524,
        "pop": 9496294,
        "longitude": -37.946777,
        "country": "BR",
        "recovered": 0,
        "id": "NyGlFL1gATK1Omv9qtcC",
        "sick": 378216,
        "invisible": false
    },
    {
        "name": "Liberia",
        "recovered": 1940,
        "latitude": 6.4281,
        "longitude": -9.4295,
        "dead": 85,
        "vaccinated": 0,
        "infected": 2097,
        "pop": 4732000,
        "lastUpdated": "2021-04-24T17:38:03.353Z",
        "id": "O4g88K49HKEZLFXm5gxb",
        "country": "LR",
        "sick": 72,
        "invisible": false
    },
    {
        "infected": 49189,
        "lastUpdated": "2021-04-24T17:23:13.055Z",
        "country": "RU",
        "vaccinated": 0,
        "latitude": 51.7936,
        "name": "Altai Krai",
        "dead": 2029,
        "recovered": 44115,
        "longitude": 82.6759,
        "id": "O5fNOGWKosps6JTrzkpn",
        "pop": 2350000,
        "sick": 3045,
        "invisible": false
    },
    {
        "country": "RU",
        "dead": 619,
        "id": "O6PDzAxKENYbLsLjPx2K",
        "infected": 42117,
        "recovered": 40673,
        "lastUpdated": "2021-04-24T17:23:13.056Z",
        "longitude": 116.9677,
        "name": "Zabaykalsky Krai",
        "pop": 1072000,
        "latitude": 53.0929,
        "vaccinated": 0,
        "sick": 825,
        "invisible": false
    },
    {
        "id": "ONU4CK8QjViFHKg2w5if",
        "country": "US",
        "name": "South Carolina",
        "vaccinated": 1809407,
        "recovered": 0,
        "latitude": 34.003307,
        "state": "SC",
        "infected": 574226,
        "dead": 9414,
        "pop": 5084000,
        "lastUpdated": "2021-04-24T17:23:05.734Z",
        "longitude": -80.525613,
        "sick": 564812,
        "invisible": false
    },
    {
        "latitude": 33.51822,
        "pop": 2987000,
        "name": "Mississippi",
        "vaccinated": 897932,
        "country": "US",
        "lastUpdated": "2021-04-24T17:23:05.735Z",
        "recovered": 0,
        "dead": 7175,
        "state": "MS",
        "infected": 310349,
        "id": "OYa0jFzdbAgo8zUsRv6q",
        "longitude": -89.582775,
        "sick": 303174,
        "invisible": false
    },
    {
        "id": "OcXNp9kNVSwrRlG3bNVN",
        "longitude": -69.4455,
        "dead": 772,
        "lastUpdated": "2021-04-24T17:23:05.737Z",
        "country": "US",
        "pop": 1338000,
        "recovered": 0,
        "state": "ME",
        "vaccinated": 689753,
        "infected": 59612,
        "latitude": 45.2538,
        "name": "Maine",
        "sick": 58840,
        "invisible": false
    },
    {
        "dead": 185,
        "id": "OlKS5SPydHY2TedStFuf",
        "pop": 488000,
        "name": "Ingushetia",
        "recovered": 13583,
        "longitude": 44.8203,
        "infected": 15366,
        "vaccinated": 0,
        "lastUpdated": "2021-04-24T17:23:13.064Z",
        "country": "RU",
        "latitude": 43.4052,
        "sick": 1598,
        "invisible": false
    },
    {
        "state": "TAS",
        "dead": 13,
        "recovered": 221,
        "longitude": 146.725256,
        "vaccinated": 0,
        "lastUpdated": "2021-04-24T17:23:47.138Z",
        "id": "OnOseaqWdnuP18oruABW",
        "infected": 234,
        "pop": 515000,
        "latitude": -41.915264,
        "name": "Tasmania",
        "country": "AU",
        "sick": 0,
        "invisible": false
    },
    {
        "id": "P0GHFGUt1pkKTk5PM8uz",
        "dead": 9431,
        "lastUpdated": "2021-04-24T17:23:04.493Z",
        "infected": 351574,
        "name": "Mato Grosso",
        "pop": 3441998,
        "recovered": 0,
        "state": "MT",
        "latitude": -16.35,
        "longitude": -56.666668,
        "vaccinated": 0,
        "country": "BR",
        "sick": 342143,
        "invisible": false
    },